"nom_methode_dpe","version_methode_dpe","date_etablissement_dpe","consommation_energie","classe_consommation_energie","estimation_ges","classe_estimation_ges","annee_construction","surface_thermique_lot","latitude","longitude","tr001_modele_dpe_type_libelle","tr002_type_batiment_description","code_insee_commune_actualise","tv016_departement_code","geo_adresse","geo_score"
"3CL","3CL-DPE, version 1.3","2013-04-12",132,"C",29,"D",5200,190,46.3333359,5.4893103,"Vente","Maison Individuelle","01430","01","Impasse du Tilleul (Chemin) Charnod",0.81
"Méthode Facture",,"2013-04-20",0,"N",0,"N",1947,42,48.424543,2.1368622,"Vente","Maison Individuelle","83590","02","Rue de la Treille (Pont) Étampes",0.8
"Méthode 3CL","3CL-DPE, version 1.3","2013-04-16",326,"E",18,"C",2006,107,,,"Vente","Maison Individuelle","03360","03",,0
"Méthode 3CL","3CL-DPE, version 1.3","2013-05-06",326,"E",14,"C",1948,90,43.1132176,1.6080693,"Vente","Logement","04320","04","Rue Serpente (Escalier) Pamiers",0.89
"Méthode 3CL","3CL-DPE, version 1.3","2013-04-27",221,"D",3,"A",2006,78.2,42.7617201,1.7616399,"Location","Logement","05120","05","Rue de la Mairie (Pont) Luzenac",0.9
"Facture","facture","2013-02-13",0,"N",0,"N",1948,54.31,,,"Vente","Logement","06400","06",,0
"Méthode 3CL","3CL-DPE, version 1.3","2013-04-10",174,"D",52,"E",2001,87.56,46.4595973,4.5992193,"Vente","Maison Individuelle","07610","07","Le Pré Poulin (Arrêt de bus) La Vineuse sur Fregande",0.88
"Méthode Facture",,"2013-05-02",351,"F",82,"G",1947,122.32,,,"Vente","Logement","08000","08",,0
"Méthode Facture",,"2013-05-06",8,"A",0,"A",1947,102,,,"Vente","Maison Individuelle","09000","09",,0
"3CL - DPE","V2012","2013-05-02",249.12,"E",13.26,"C",2006,91,48.14083,4.211108,"Location","Maison Individuelle","10331","10","16 bis Route de Nicey 10260 Rumilly-lès-Vaudes",0.94
"Méthode 3CL","3CL-DPE, version 1.3","2013-04-15",195,"D",9,"B",1989,35,,,"Vente","Maison Individuelle","11430","11",,0
"TROIS_CL_DPE","VERSION_2012","2013-05-08",287.13,"E",86.14,"G",1974,202.6,,,"Vente","Maison Individuelle","12005","12",,0
"3CL","3CL-DPE, version 1.3","2013-04-08",206,"D",10,"B",2006,84,,,"Vente","Logement","13013","13",,0
"3CL","3CL-DPE, version 1.3","2013-04-13",322,"E",17,"C",1983,80,51.0260528,2.4863305,"Vente","Maison Individuelle","14470","14","Rue des Aubépines (Chemin) Uxem",0.8
"TROIS_CL_DPE","VERSION_2012","2013-05-09",358.04,"F",20.31,"C",1975,172.5,44.5580681,2.254087,"Vente","Maison Individuelle","15013","15","Rue de l'Égalité (Escalier) Decazeville",0.75
"FACTURE - DPE","V2012","2013-04-09",29.54,"A",6.91,"B",2006,87.5,45.63127,0.166008,"Neuf","Maison Individuelle","16015","16","Hameau des Rossignols 16000 Angoulême",0.86
"FACTURE","VERSION_2012","2013-04-05",64.42,"B",0.99,"A",1940,109.5,47.3373928,0.0537632,"Vente","Maison Individuelle","17044","17","Chemin de la Poitevinière La Breille-les-Pins",0.83
"3CL - DPE","V2012","2013-04-23",219.47,"D",52.89,"E",1900,108.7,47.386943,2.876888,"Vente","Maison Individuelle","18020","18","25 Rue des Bonnins 18300 Bannay",0.62
"Méthode 3CL","3CL-DPE, version 1.3","2013-05-10",212,"D",10,"B",1983,42.25,45.348946,1.637513,"Vente","Logement","19100","19","18 Rue du Champ Fleury 19700 Lagraulière",0.42
"3CL","3CL-DPE, version 1.3","2013-04-09",213,"D",10,"B",2006,42,,,"Location","Logement","21000","21",,0
"FACTURE","VERSION_2012","2013-04-25",282.41,"E",239.06,"G",1900,114.75,48.631526,-3.314171,"Vente","Maison Individuelle","22004","22","Kerogant 22140 Bégard",0.44
"3CL","3CL-DPE, version 1.3","2013-04-09",281,"E",65,"F",1978,121.2,44.134406,4.8032741,"Vente","Maison Individuelle","23110","23","Lotissement Clos des Thermes (Zone résidentielle) Orange",0.76
"3CL - DPE","V2012","2013-05-02",189.34,"D",44.69,"E",2000,95,45.382138,0.259403,"Vente","Maison Individuelle","24303","24","Le Moulin du Treuil 24320 Nanteuil-Auriac-de-Bourzac",0.92
"3CL","3CL-DPE, version 1.3","2013-04-11",296,"E",20,"C",1989,22.63,,,"Vente","Logement","25200","25",,0
"Facture","facture","2013-04-12",0,"N",0,"N",1948,180,,,"Vente","Maison Individuelle","26780","26",,0
"Méthode 3CL","3CL-DPE, version 1.3","2013-04-18",298,"E",11,"C",1983,105,49.133106,0.845441,"Vente","Maison Individuelle","27210","27","Chemin du Buisson Saint-martin 27170 Écardenville-la-Campagne",0.56
"Méthode Facture",,"2013-04-12",0,"N",0,"N",1947,75,48.15627,4.0385218,"Location","Maison Individuelle","28700","28","Chemin Grande Rue Lirey",0.76
"3CL - DPE","V2012","2013-04-17",259.91,"E",12.68,"C",1999,64.2,47.894507,-4.003701,"Vente","Maison Individuelle","29058","29","12 Résidence de la Fontaine 29170 Fouesnant",0.45
"Méthode 3CL","3CL-DPE, version 1.3","2013-04-24",126,"C",5,"A",1983,65,,,"Vente","Maison Individuelle","20137","2A",,0
"Méthode 3CL","3CL-DPE, version 1.3","2013-04-03",152,"D",9,"B",1989,130,,,"Vente","Maison Individuelle","20250","2B",,0
"Méthode Facture",,"2013-04-15",0,"N",0,"N",1947,87.5,,,"Vente","Logement","30160","30",,0
"3CL","3CL-DPE, version 1.3","2013-04-08",177,"D",9,"B",2001,70.66,42.970661,0.658073,"Vente","Logement","31200","31","6 Rue Principale 31510 Frontignan-de-Comminges",0.36
"Méthode 3CL","3CL-DPE, version 1.3","2013-04-16",155,"D",9,"B",2001,105,47.8876296,-1.6854522,"Vente","Maison Individuelle","32110","32","Au Village (Café) Poligné",0.9
"3CL","3CL-DPE, version 1.3","2013-04-09",276,"E",15,"C",1948,77.14,43.6676422,4.629859,"Location","Logement","33650","33","Place Montesquieu (Parking) Arles",0.76
"3CL - DPE","V2012","2013-04-04",253.77,"E",14.32,"C",1984,124,43.656307,3.971334,"Vente","Maison Individuelle","34327","34","12 bis Rue du Peyrou 34740 Vendargues",0.95
"3CL","3CL-DPE, version 1.3","2013-04-10",112,"C",20,"C",2001,115,48.65848,7.8377978,"Location","Maison Individuelle","35410","35","Rue de la Perche (Chemin piéton) La Wantzenau",0.79
"Méthode Facture",,"2013-04-17",101,"C",3,"A",1947,118,,,"Vente","Maison Individuelle","36400","36",,0
"3CL - DPE","V2012","2013-04-03",265.27,"E",62.07,"F",1900,70,47.3265242,0.4083359,"Vente","Maison Individuelle","37038","37","Place Léon Boyer (Parking) Langeais",0.75
"3CL","3CL-DPE, version 1.3","2013-04-05",293,"E",15,"C",2006,91,,,"Vente","Maison Individuelle","38780","38",,0
"3CL - DPE","V2012","2013-05-04",318.28,"E",17.88,"C",1977,90,47.149928,5.549608,"Vente","Maison Individuelle","39121","39","1 Chemin des Sablonnières 39700 Châtenois",0.73
"Méthode 3CL","3CL-DPE, version 1.3","2013-04-16",140,"C",4,"A",2001,164,,,"Vente","Maison Individuelle","40090","40",,0
"3CL - DPE","V2012","2013-04-09",327.95,"E",19.18,"C",1975,107.6,47.499183,1.166697,"Vente","Maison Individuelle","41167","41","4 Rue des Champs Marquiers 41150 Veuzain-sur-Loire",0.94
"3CL","3CL-DPE, version 1.3","2013-04-05",97,"C",4,"A",1984,125,48.5871504,0.8671377,"Vente","Maison Individuelle","42410","42","Allée de la Moinerie (Chemin) La Ferté-Vidame",0.73
"3CL - DPE","V2012","2013-04-03",0,"N",0,"N",1947,71,47.9910304,2.212915,"Vente","Logement","43151","43","Le Bourg (Bar) Ingrannes",0.9
"3CL - DPE","V2012","2013-04-10",80.45,"B",18.03,"C",2012,75.3,48.7567373,6.9106479,"Location","Logement","44109","44","Quartier des Poissons (Chemin piéton) Rhodes",0.78
"TROIS_CL_DPE","VERSION_2012","2013-04-09",140.94,"C",32.98,"D",2010,112.77,,,"Location","Maison Individuelle","45072","45",,0
"3CL - DPE","V2012","2013-05-06",197.53,"D",7.94,"B",1982,53.5,,,"Vente","Logement","46145","46",,0
"3CL - DPE","V2012","2013-04-16",260.64,"E",60.99,"F",1960,82,44.191956,0.623322,"Location","Maison Individuelle","47001","47","306 Rue Ferdinand David 47000 Agen",0.77
"Méthode 3CL","3CL-DPE, version 1.3","2013-05-04",336,"F",18,"C",1978,120,47.381092,-0.8586556,"Location","Maison Individuelle","48200","48","Montjean-sur-Loire - Rue des Crêtes (Arrêt de bus) Mauges-sur-Loire",0.73
"Méthode 3CL","3CL-DPE, version 1.3","2013-04-17",306,"E",61,"F",1948,128,47.2082015,-0.5478855,"Vente","Maison Individuelle","49328","49","Route de Doué (Pont) Chemillé-en-Anjou",0.83
"3CL","3CL-DPE, version 1.3","2013-04-11",212,"D",63,"F",1948,124,49.1610179,-0.4249864,"Vente","Maison Individuelle","50690","50","Le Bas Manoir (Maison d'hôte) Bretteville-sur-Odon",0.89
"TROIS_CL_DPE","VERSION_2012","2013-04-16",423.08,"F",25.89,"D",1975,110,,,"Vente","Maison Individuelle","51050","51",,0
"Méthode Facture",,"2013-04-24",125,"C",29,"D",1947,104,47.683279,5.348809,"Vente","Maison Individuelle","52170","52","Chemin du Grand Viau 52190 Dommarien",0.34
"Méthode 3CL","3CL-DPE, version 1.3","2013-04-15",150,"C",22,"D",1990,110.05,44.6244142,-1.1576556,"Vente","Maison Individuelle","53810","53","Rue des Passereaux (Chemin piéton) La Teste-de-Buch",0.74
"3CL","3CL-DPE, version 1.3","2013-04-06",282,"E",69,"F",1948,118,48.558182,6.965191,"Vente","Maison Individuelle","54540","54","Rue de Petitmont 54480 Val-et-Châtillon",0.49
"Méthode 3CL","3CL-DPE, version 1.3","2013-04-10",181,"D",42,"E",1948,93,,,"Vente","Maison Individuelle","55000","55",,0
"3CL - DPE","V2012","2013-04-01",383.89,"F",93.15,"G",1970,89,,,"Vente","Maison Individuelle","56049","56",,0
"TROIS_CL_DPE","VERSION_2012","2013-04-11",149.59,"C",6.7,"B",2008,131,49.1854336,6.9409616,"Vente","Maison Individuelle","57048","57","Rue Sainte-Croix (Chemin) Etzling",0.71
"3CL - DPE","V2012","2013-04-30",273.05,"E",52.26,"E",1940,85.12,43.4087037,5.9203351,"Location","Maison Individuelle","58042","58","Parking Avenue Gambetta Tourves",0.83
"TROIS_CL_DPE","VERSION_2012","2013-04-12",257.96,"E",10.81,"B",2012,39.75,50.3831359,3.060796,"Location","Logement","59350","59","Rue du Pavé de Planque (Chemin piéton) Douai",0.71
"Méthode 3CL","3CL-DPE, version 1.3","2013-04-12",395,"F",92,"G",1948,90,49.603279,2.553474,"Vente","Maison Individuelle","60200","60","4 Rue de Godenvillers 60420 Domfront",0.33
"Méthode 3CL","3CL-DPE, version 1.3","2013-04-15",293,"E",56,"F",1948,110,48.515643,0.737375,"Vente","Maison Individuelle","61220","61","La Pouliniere 61290 Longny les Villages",0.55
"3CL - DPE","V2012","2013-04-08",145.82,"C",27.45,"D",1976,88.48,50.585671,2.670818,"Vente","Maison Individuelle","62252","62","555 Rue des Lobes 62136 La Couture",0.94
"Facture","facture","2013-04-12",0,"N",0,"N",1948,135,45.8004286,3.2436326,"Vente","Maison Individuelle","63310","63","Auto Ecole de la Limagne (École de conduite) Pont-du-Château",0.75
"3CL - DPE","V2012","2013-04-10",329.01,"E",76.99,"F",1965,84.75,43.323872,-0.356695,"Vente","Maison Individuelle","64445","64","24 Rue de Lacq 64000 Pau",0.96
"3CL - DPE","V2012","2013-04-11",143.68,"C",4.01,"A",1930,171,43.197723,0.150161,"Vente","Maison Individuelle","65010","65","Avenue de Toulouse 65690 Angos",0.66
"3CL - DPE","V2012","2013-04-04",494.04,"G",29.29,"D",1972,51,42.547621,2.382193,"Vente","Logement","66222","66","11 Promenade Claude Nogue 66820 Vernet-les-Bains",0.8
"3CL - DPE","V2012","2013-04-13",147.87,"C",23.21,"D",1963,188,49.6065978,0.7840667,"Vente","Maison Individuelle","67069","67","parking de la rue de la mairie Saint-Clair-sur-les-Monts",0.77
"3CL - DPE","V2012","2013-04-13",363.57,"F",11.84,"C",1940,82.9,48.262866,7.226121,"Vente","Maison Individuelle","68294","68","60 Rue Maurice Burrus 68160 Sainte-Croix-aux-Mines",0.94
"3CL - DPE","V2012","2013-04-10",416.56,"F",21.73,"D",1980,100.71,46.8282093,3.4806003,"Vente","Maison Individuelle","69275","69","Avenue de Verdun / Rue des Pendants (Arrêt de bus) Decize",0.73
"Méthode Facture",,"2013-04-20",196,"D",44,"E",1947,124.01,49.0960815,2.5197991,"Location","Maison Individuelle","70400","70","4 Rue Jean Jaurès (Arrêt de bus) Marly-la-Ville",0.8
"Méthode Facture",,"2013-04-16",269,"E",63,"F",1947,59.52,,,"Vente","Logement","71600","71",,0
"3CL - DPE","V2012","2013-04-06",205.59,"D",48.11,"E",1963,85,47.999064,0.232017,"Vente","Maison Individuelle","72181","72","13 Impasse Douce Amie 72000 Le Mans",0.96
"Méthode 3CL","3CL-DPE, version 1.3","2013-04-29",231,"E",69,"F",1989,120,49.3100045,1.03666,"Vente","Maison Individuelle","73350","73","La Traverse (Théâtre) Cléon",0.89
"3CL","3CL-DPE, version 1.3","2013-04-10",197,"D",10,"B",1993,64.85,,,"Vente","Logement","74200","74",,0
"Méthode Facture",,"2013-04-11",249,"E",15,"C",1947,54,48.930427,2.416435,"Vente","Logement","75013","75","32 Rue de Verdun 93350 Le Bourget",0.57
"3CL - DPE","V2012","2013-04-08",243.74,"E",57.04,"F",1980,31.74,,,"Vente","Logement","76183","76",,0
"3CL","3CL-DPE, version 1.3","2013-04-09",203,"D",47,"E",1975,150,48.9385366,2.8587776,"Vente","Maison Individuelle","77135","77","Rue de l'Étrier (Chemin piéton) Villenoy",0.74
"FACTURE","VERSION_2012","2013-04-12",261.42,"E",0,"A",1970,8.75,48.7621386,2.1483769,"Vente","Logement","78646","78","Rue Mansart (Chemin piéton) Les Loges-en-Josas",0.75
"3CL","3CL-DPE, version 1.3","2013-04-03",326,"E",18,"C",1983,69.84,46.7578742,1.7087561,"Vente","Maison Individuelle","79800","79","Chemin Rural de la Barrière d'Arnault à la Rue Le Poinçonnet",0.77
"3CL","3CL-DPE, version 1.3","2013-04-08",200,"D",6,"B",2001,99,49.865864,1.839934,"Vente","Maison Individuelle","80800","80","4 Rue Principale 80140 Villers-Campsart",0.38
"Méthode 3CL","3CL-DPE, version 1.3","2013-04-30",333,"F",100,"G",1948,144.6,43.602989,2.227117,"Vente","Maison Individuelle","81065","81","80 Chemin du Corporal 81100 Castres",0.96
"3CL - DPE","V2012","2013-04-12",280.67,"E",13.56,"C",2008,85,43.881069,1.251125,"Vente","Maison Individuelle","82017","82","192 Rue Jules Ferry 82170 Bessens",0.94
"3CL - DPE","V2012","2013-04-09",228.7,"D",9.19,"B",1985,24.89,48.6075031,2.3068558,"Vente","Logement","83071","83","Place Victor Hugo (Espace vert) Brétigny-sur-Orge",0.9
"TROIS_CL_DPE","VERSION_2012","2013-04-15",118.16,"C",25.02,"D",1970,150,44.09264,4.914645,"Vente","Maison Individuelle","84039","84","236 Chemin des Sarrassanes 3 84350 Courthézon",0.94
"3CL - DPE","V2012","2013-04-03",0,"N",0,"N",1980,93.64,47.023082,-2.292857,"Vente","Maison Individuelle","85163","85","4 Residence Janvier 85330 Noirmoutier-en-l'Île",0.95
"3CL","3CL-DPE, version 1.3","2013-04-09",194,"D",9,"B",2006,111.03,49.1596392,2.3378909,"Vente","Maison Individuelle","86580","86","Allée Joseph Marie Jacquard (Chemin piéton) Bruyères-sur-Oise",0.74
"FACTURE - DPE","V2012","2013-04-09",131.56,"C",22.29,"D",2006,101,45.510319,1.3153,"Neuf","Maison Individuelle","87049","87","9 Rue de l'Oradour 87500 Coussac-Bonneval",0.85
"Méthode 3CL","3CL-DPE, version 1.3","2013-04-10",221,"D",10,"B",1989,112,48.191924,6.285619,"Vente","Maison Individuelle","88210","88","Rue de la Gitte 88270 Gorhey",0.39
"Méthode 3CL","3CL-DPE, version 1.3","2013-04-29",328,"E",15,"C",1981,90,,,"Vente","Maison Individuelle","89500","89",,0
"3CL - DPE","V2012","2013-04-12",374.33,"F",87.59,"G",1950,61.5,47.64196,6.852431,"Vente","Logement","90010","90","24 Boulevard Jean-marie de Lattre de Tassigny 90000 Belfort",0.92
"3CL","3CL-DPE, version 1.3","2013-04-08",146,"C",34,"D",1989,123.4,47.6204479,6.8337011,"Vente","Maison Individuelle","91510","91","Grande Rue François Mitterrand (Pont) Bavilliers",0.76
"TROIS_CL_DPE","VERSION_2012","2013-04-08",242.02,"E",11.68,"C",1980,64.05,48.892677,2.248853,"Location","Logement","92026","92","25 Rue d''Essling 92400 Courbevoie",0.96
"Méthode Facture",,"2013-04-12",153,"D",35,"D",1,84,,,"Vente","Logement","93270","93",,0
"Méthode 3CL","3CL-DPE, version 1.3","2013-04-11",233,"E",22,"D",2006,39,,,"Location","Logement",,"94",,0
"Méthode Facture",,"2013-04-11",323,"E",75,"F",1947,90,48.8053055,2.1719537,"Vente","Logement","95470","95","Square de la Chapelle (Aire de jeux) Viroflay",0.82
"Méthode Facture",,"2013-04-15",286,"E",9,"B",1,106.87,48.8474569,2.4369967,"Vente","Maison Individuelle","01450","01","28 avenue du Château (Parking à vélos) Vincennes",0.77
"3CL - DPE","V2012","2013-04-17",200.38,"D",41.81,"E",1947,136,49.6932254,3.2076958,"Vente","Maison Individuelle","2336","02","Rue du Bois l'Abbé (Chemin) Flavy-le-Martel",0.77
"Méthode Facture",,"2013-04-21",158,"D",37,"E",1947,137,45.9718838,3.2546219,"Vente","Maison Individuelle","03800","03","Rue Croix des Rameaux (Chemin) Thuret",0.73
"Méthode 3CL","3CL-DPE, version 1.3","2013-05-08",48,"A",0,"A",2011,103,43.855482,6.650305,"Location","Maison Individuelle","04210","04","Chemin du Teillon 04120 Soleilhas",0.33
"Méthode 3CL","3CL-DPE, version 1.3","2013-04-07",365,"F",23,"D",1948,205,,,"Vente","Maison Individuelle","05200","05",,0
"3CL","3CL-DPE, version 1.3","2013-04-08",71,"B",16,"C",1989,78,,,"Vente","Logement","06800","06",,0
"Méthode 3CL","3CL-DPE, version 1.3","2013-04-12",343,"F",18,"C",1960,69.56,,,"Vente","Logement","07130","07",,0
"Méthode Facture",,"2013-04-30",0,"N",0,"N",1947,67.83,,,"Vente","Logement","08000","08",,0
"Méthode Facture",,"2013-05-06",179,"D",42,"E",1947,274.6,48.7669697,2.4147189,"Vente","Maison Individuelle","09500","09","Avenue Victor Hugo (Pont) Choisy-le-Roi",0.77
"3CL - DPE","V2012","2013-05-02",292.71,"E",87.81,"G",1974,152,48.058214,4.13875,"Vente","Maison Individuelle","10080","10","1 Rue des Cannes 10210 Chaource",0.94
"Méthode 3CL","3CL-DPE, version 1.3","2013-04-15",145,"C",6,"B",1978,35,,,"Vente","Logement","11430","11",,0
"Méthode 3CL","3CL-DPE, version 1.3","2013-05-10",654,"G",8,"B",1948,18,44.3022979,2.7443963,"Vente","Maison Individuelle","12290","12","Montredon (Pic) Le Vibal",0.9
"Méthode 3CL","3CL-DPE, version 1.3","2013-04-08",107,"C",32,"D",1989,136,,,"Vente","Maison Individuelle","13610","13",,0
"3CL","3CL-DPE, version 1.3","2013-04-13",169,"D",39,"E",1989,98,,,"Vente","Maison Individuelle","14790","14",,0
"Méthode Facture",,"2013-05-21",0,"N",0,"N",1947,82,44.8835742,2.3748939,"Vente","Maison Individuelle","15310","15","Z.A. de Bargues (Usine) Sansac-de-Marmiesse",0.88
"FACTURE - DPE","V2012","2013-04-09",28.32,"A",6.63,"B",2006,87.5,45.63127,0.166008,"Neuf","Maison Individuelle","16015","16","Hameau des Rossignols 16000 Angoulême",0.86
"FACTURE","VERSION_2012","2013-04-05",64.42,"B",0.99,"A",1940,109.5,47.3373928,0.0537632,"Vente","Maison Individuelle","17044","17","Chemin de la Poitevinière La Breille-les-Pins",0.83
"3CL - DPE","V2012","2013-04-24",282.94,"E",15.38,"C",2003,95,47.35971,2.870519,"Vente","Maison Individuelle","18020","18","Le Rochoy 18300 Bannay",0.36
"Méthode 3CL","3CL-DPE, version 1.3","2013-05-15",158,"D",37,"E",2000,47,45.355114,1.641295,"Vente","Logement","19100","19","2 Résidence Las Borias 19700 Lagraulière",0.33
"Méthode 3CL","3CL-DPE, version 1.3","2013-04-22",219,"D",7,"B",2012,110,47.235877,4.689604,"Vente","Maison Individuelle","21120","21","Puits Roland 21360 La Bussière-sur-Ouche",0.3
"TROIS_CL_DPE","VERSION_2012","2013-04-29",276.18,"E",35.73,"D",1975,133,48.699613,-3.368472,"Vente","Maison Individuelle","22030","22","Crech Ar Iar 22300 Caouënnec-Lanvézéac",0.38
"Méthode Facture",,"2013-04-17",154,"D",33,"D",1947,163,,,"Vente","Maison Individuelle","23300","23",,0
"FACTURE - DPE","V2012","2013-05-02",58.71,"N",1.91,"N",1948,140,48.865011,2.28336,"Vente","Maison Individuelle","75056","24","Impasse des Prêtres 75016 Paris",0.3
"Méthode Facture",,"2013-04-24",246,"E",8,"B",1947,42,43.6157198,3.8756816,"Vente","Logement","25200","25","Quai des Tanneurs (Piste cyclable) Montpellier",0.8
"Méthode 3CL","3CL-DPE, version 1.3","2013-04-17",225,"D",52,"E",1948,80,44.174767,5.639571,"Vente","Logement","26200","26","Route de Villevieille 26560 Montfroc",0.33
"TROIS_CL_DPE","VERSION_2012","2013-04-19",425.86,"F",102.09,"G",1967,68.2,48.989161,1.162948,"Vente","Maison Individuelle","27017","27","23 Rue du Parc 27930 Angerville-la-Campagne",0.6
"TROIS_CL_DPE","VERSION_2012","2013-04-12",324.38,"E",18.48,"C",1973,84,48.342988,1.498835,"Vente","Maison Individuelle","28122","28","10 Rue de la Vigne 28360 Dammarie",0.6
"Méthode 3CL","3CL-DPE, version 1.3","2013-04-22",96,"C",4,"A",2009,121.8,48.6220013,7.7210547,"Vente","Maison Individuelle","29870","29","Rue de la Fontaine (Pont) Hœnheim",0.77
"Méthode 3CL","3CL-DPE, version 1.3","2013-05-06",191,"D",8,"B",1968,61.05,44.6362361,-1.0513371,"Vente","Logement","20000","2A","Rue de Marengo (Pont) Gujan-Mestras",0.75
"Méthode 3CL","3CL-DPE, version 1.3","2013-04-15",271,"E",16,"C",2001,160,,,"Vente","Maison Individuelle","20218","2B",,0
"Méthode 3CL","3CL-DPE, version 1.3","2013-04-09",185,"D",7,"B",1989,73,43.6499136,6.9217641,"Vente","Logement","30420","30","Avenue Frédéric Mistral (Pont) Grasse",0.83
"3CL","3CL-DPE, version 1.3","2013-04-09",221,"D",11,"C",2001,49.41,,,"Vente","Logement","31300","31",,0
"TROIS_CL_DPE","VERSION_2012","2013-04-19",208.37,"D",10.65,"B",1985,100,43.6417119,0.5950781,"Vente","Maison Individuelle","32001","32","Résidence Les Terrasses (Zone résidentielle) Auch",0.9
"3CL","3CL-DPE, version 1.3","2013-04-09",293,"E",16,"C",1948,45.22,43.6676422,4.629859,"Location","Logement","33650","33","Place Montesquieu (Parking) Arles",0.76
"3CL - DPE","V2012","2013-04-10",144.13,"C",4.44,"A",1996,67,48.4646741,0.0666913,"Vente","Maison Individuelle","34022","34","Rue de Lonray (Chemin) Colombiers",0.76
"3CL","3CL-DPE, version 1.3","2013-04-11",276,"E",35,"D",1948,105.07,,,"Vente","Maison Individuelle","35000","35",,0
"Méthode Facture",,"2013-04-15",192,"D",6,"B",1947,91,47.9910304,2.212915,"Vente","Maison Individuelle","36400","36","Le Bourg (Bar) Ingrannes",0.9
"3CL","3CL-DPE, version 1.3","2013-04-11",147,"C",34,"D",1989,200,48.3777185,0.570419,"Vente","Maison Individuelle","37400","37","Rue de la Fuie (Chemin) Bellême",0.72
"Méthode Facture",,"2013-04-05",211,"D",33,"D",1947,97.5,,,"Location","Logement","38200","38",,0
"3CL - DPE","V2012","2013-05-04",306.73,"E",71.78,"F",1949,83.42,46.729853,5.497603,"Vente","Maison Individuelle","39471","39","145 Bard 39140 Ruffey-sur-Seille",0.94
"Méthode 3CL","3CL-DPE, version 1.3","2013-04-12",132,"C",6,"B",1983,175,43.524147,-1.3545764,"Vente","Maison Individuelle","40390","40","Route de Saint-Barthélemy (Pont) Saint-Martin-de-Seignanx",0.83
"3CL - DPE","V2012","2013-04-15",159.22,"D",37.26,"E",1983,112,47.503108,1.179005,"Vente","Maison Individuelle","41167","41","1 Rue du Docteur Jean Girault 41150 Veuzain-sur-Loire",0.8
"3CL","3CL-DPE, version 1.3","2013-04-10",468,"G",111,"G",1948,64.23,46.091855,4.303782,"Vente","Maison Individuelle","42300","42","Rue du Bas Lamure 42460 Sevelinges",0.31
"3CL - DPE","V2012","2013-04-03",0,"N",0,"N",1947,32,47.9910304,2.212915,"Vente","Logement","43151","43","Le Bourg (Bar) Ingrannes",0.9
"3CL","3CL-DPE, version 1.3","2013-04-09",204,"D",8,"B",2001,42.03,,,"Vente","Logement","44600","44",,0
"TROIS_CL_DPE","VERSION_2012","2013-04-11",282.4,"E",16.24,"C",1980,67.16,47.898634,1.897908,"Location","Logement","45234","45","2 bis Rue Stanislas Julien 45000 Orléans",0.96
"3CL - DPE","V2012","2013-05-06",268.74,"E",62.89,"F",1974,117,,,"Vente","Maison Individuelle","46180","46",,0
"FACTURE - DPE","V2012","2013-04-26",140.75,"N",4.58,"N",1948,47,44.205496,0.629098,"Vente","Logement","47001","47","24 Avenue Henri-barbusse 47000 Agen",0.95
"Méthode 3CL","3CL-DPE, version 1.3","2013-05-07",657,"G",41,"E",1975,32,,,"Vente","Logement","48000","48",,0
"Méthode 3CL","3CL-DPE, version 1.3","2013-04-18",220,"D",11,"C",1948,104.5,,,"Location","Maison Individuelle","49650","49",,0
"3CL","3CL-DPE, version 1.3","2013-04-11",212,"D",63,"F",1948,124,49.1610179,-0.4249864,"Vente","Maison Individuelle","50690","50","Le Bas Manoir (Maison d'hôte) Bretteville-sur-Odon",0.89
"3CL - DPE","V2012","2013-04-18",301.95,"E",15.35,"C",1996,55,49.245055,4.048525,"Vente","Logement","51454","51","91 bis Boulevard Henry Vasnier 51100 Reims",0.96
"3CL - DPE","V2012","2013-05-03",155,"D",7,"B",2004,152,,,"Vente","Maison Individuelle","0","52",,0
"Méthode 3CL","3CL-DPE, version 1.3","2013-04-17",219,"D",51,"E",1948,105,47.865367,1.9026384,"Vente","Maison Individuelle","53000","53","Rue Jules Marie Simon (Chemin piéton) Olivet",0.84
"Méthode Facture",,"2013-04-15",227,"D",53,"E",1947,52,49.4845616,6.2535542,"Vente","Logement","54000","54","Rue Pasteur (Pont) Puttelange-lès-Thionville",0.77
"Méthode 3CL","3CL-DPE, version 1.3","2013-04-24",363,"F",85,"G",1948,114,48.5500757,-1.7428191,"Vente","Maison Individuelle","55000","55","Allée des Platanes (Chemin) Dol-de-Bretagne",0.76
"3CL - DPE","V2012","2013-04-10",228.21,"D",35.76,"D",1947,197,,,"Vente","Maison Individuelle","56264","56",,0
"TROIS_CL_DPE","VERSION_2012","2013-04-11",454.77,"G",88.51,"G",1960,217,46.0876262,5.8337163,"Vente","Maison Individuelle","57606","57","Rue des Vergers (Pont) Éloise",0.79
"3CL - DPE","V2012","2013-05-03",212,"D",11,"C",2005,91,43.6827478,3.0958678,"Vente","Maison Individuelle","02198","58","Chemin Graissessac",0.8
"Méthode Facture",,"2013-04-16",172,"D",5,"A",1947,94,50.551433,3.052942,"Vente","Maison Individuelle","59560","59","Rue des Paves 59113 Seclin",0.5
"Méthode 3CL","3CL-DPE, version 1.3","2013-04-12",395,"F",92,"G",1948,90,49.603279,2.553474,"Vente","Maison Individuelle","60200","60","4 Rue de Godenvillers 60420 Domfront",0.33
"Méthode Facture",,"2013-04-15",232,"E",7,"B",1947,120,45.9581828,2.1731078,"Vente","Maison Individuelle","61700","61","Petite Rue du Mont (Escalier) Aubusson",0.76
"3CL - DPE","V2012","2013-04-13",589.9,"G",52.49,"E",1952,51.77,50.465979,1.589028,"Vente","Maison Individuelle","62571","62","126 Rue des Flaques 62155 Merlimont",0.94
"3CL - DPE","V2012","2013-04-04",117.29,"C",35.19,"D",1900,68,45.464999,3.339676,"Vente","Maison Individuelle","63022","63","4 Rue de la Croze 63570 Auzat-la-Combelle",0.61
"3CL - DPE","V2012","2013-04-17",54.04,"B",12.65,"C",1850,53.38,43.2810755,-0.3980108,"Vente","Logement","64445","64","Rue Mathieu Lalanne (Chemin) Jurançon",0.77
"3CL - DPE","V2012","2013-04-11",538.77,"G",122.47,"G",1957,67.09,43.207905,0.097102,"Vente","Maison Individuelle","65433","65","1 Impasse Gabriel Péri 65430 Soues",0.94
"3CL - DPE","V2012","2013-04-05",321.88,"E",77.9,"F",1969,94.5,42.604011,2.402329,"Location","Maison Individuelle","66161","66","6 Rue du Pla 66500 Ria-Sirach",0.94
"Méthode Facture",,"2013-04-16",185,"D",55,"E",1947,84.5,49.1659974,5.4049208,"Location","Logement","67000","67","Nécropole nationale du Faubourg-Pavé (Tombeau) Verdun",0.72
"3CL - DPE","V2012","2013-04-12",0,"N",0,"N",1930,100.8,48.262866,7.226121,"Vente","Logement","68294","68","60 Rue Maurice Burrus 68160 Sainte-Croix-aux-Mines",0.94
"3CL","3CL-DPE, version 1.3","2013-04-10",254,"E",47,"E",1978,97,45.7267622,-1.1763092,"Location","Maison Individuelle","69470","69","Impasse des Pins (Chemin) Les Mathes",0.75
"3CL - DPE","V2012","2013-04-22",116.6,"C",27.28,"D",1947,69.8,45.5471311,3.2534491,"Vente","Logement","70064","70","Avenue Jean Jaurès (Pont) Issoire",0.77
"Méthode 3CL","3CL-DPE, version 1.3","2013-04-18",294,"E",16,"C",2006,87,43.555801,5.570154,"Location","Maison Individuelle","71600","71","Les Plaines (Abri) Vauvenargues",0.89
"3CL - DPE","V2012","2013-04-11",277.94,"E",14.41,"C",1975,165.94,47.75826,0.396998,"Location","Maison Individuelle","72028","72","Lieu Dit la Chataigneraie 72500 Beaumont-Pied-de-Bœuf",0.68
"Méthode 3CL","3CL-DPE, version 1.3","2013-04-29",225,"D",52,"E",2001,37.5,45.505977,6.568161,"Vente","Logement","73190","73","Rue des Longes 73600 Notre-Dame-du-Pré",0.33
"3CL","3CL-DPE, version 1.3","2013-04-11",0,"N",0,"N",1975,20.9,45.957477,6.386931,"Vente","Logement","74110","74","Rte de la Resistance 74130 Glières-Val-de-Borne",0.33
"Méthode Facture",,"2013-04-11",692,"G",22,"D",1947,23.86,46.3328388,6.0553647,"Vente","Logement","75019","75","Rue Leone de Joinville (Pont) Gex",0.76
"3CL - DPE","V2012","2013-04-03",299.81,"E",17.4,"C",1975,115,49.7477919,4.6826435,"Vente","Maison Individuelle","76291","76","Rue des Prés Glacerons (Chemin) Prix-lès-Mézières",0.71
"TROIS_CL_DPE","VERSION_2012","2013-04-10",353.56,"F",18.79,"C",2001,60,50.8726935,2.5509253,"Vente","Maison Individuelle","77008","77","Rue de la Briqueterie (Pont) Herzeele",0.82
"TROIS_CL_DPE","VERSION_2012","2013-04-12",163.01,"D",38.14,"E",1980,98.07,47.1772503,-1.5947282,"Vente","Logement","78423","78","Rue Christophe Colomb (Pont) Bouguenais",0.82
"3CL","3CL-DPE, version 1.3","2013-04-11",184,"D",8,"B",1989,66,46.1171738,5.3246268,"Vente","Maison Individuelle","79800","79","Route de Salles (Pont) Saint-Martin-du-Mont",0.74
"Méthode Facture",,"2013-04-09",211,"D",49,"E",1947,128,,,"Vente","Maison Individuelle","80300","80",,0
"3CL - DPE","V2012","2013-04-29",201.56,"D",10.37,"B",2012,107.4,43.660218,2.025675,"Vente","Maison Individuelle","81286","81","Route du Château 81220 Serviès",0.67
"3CL - DPE","V2012","2013-04-18",103.5,"C",6.69,"B",1950,249.79,43.999676,1.408905,"Vente","Maison Individuelle","82121","82","2173 Route de Saint- Martial 82000 Montauban",0.88
"Facture","facture","2013-04-09",0,"N",0,"N",6060,80,,,"Vente","Maison Individuelle","83630","83",,0
"Méthode 3CL","3CL-DPE, version 1.3","2013-04-15",335,"F",17,"C",1975,115.85,,,"Location","Maison Individuelle","84220","84",,0
"Méthode 3CL","3CL-DPE, version 1.3","2013-05-02",131,"C",23,"D",1989,117.5,48.6039332,2.5451389,"Vente","Maison Individuelle","85170","85","Rue des Charmes (Chemin piéton) Savigny-le-Temple",0.74
"3CL","3CL-DPE, version 1.3","2013-04-12",193,"D",10,"B",2001,123.45,47.2883751,-0.1466251,"Vente","Maison Individuelle","86600","86","Chemin du Champ de la Croix Saumur",0.77
"3CL - DPE","V2012","2013-04-11",390.6,"F",23.83,"D",1981,135.4,45.882442,0.860472,"Vente","Maison Individuelle","87030","87","Rue de la Ribière 87200 Chaillac-sur-Vienne",0.6
"Méthode Facture",,"2013-04-11",128,"C",2,"A",1947,95,48.407459,6.539619,"Vente","Maison Individuelle","88110","88","18 Rue de Fauconcourt 88700 Clézentaine",0.44
"3CL - DPE","V2012","2013-05-02",227.91,"D",53.33,"E",1930,112,48.318483,3.124014,"Vente","Maison Individuelle","89074","89","20 Rue des Caves 89340 Champigny",0.62
"Méthode 3CL","3CL-DPE, version 1.3","2013-04-15",487,"G",114,"G",1948,95,48.430425,-4.3873349,"Vente","Maison Individuelle","90000","90","Rue Claude Bernard (Route en construction) Guipavas",0.8
"3CL","3CL-DPE, version 1.3","2013-04-10",177,"D",41,"E",1984,79.04,46.6885433,5.5591358,"Vente","Maison Individuelle","91560","91","Rue Georges Bizet (Chemin) Lons-le-Saunier",0.8
"Méthode Facture",,"2013-04-16",379,"F",12,"C",1947,31,,,"Vente","Logement","92600","92",,0
"Méthode 3CL","3CL-DPE, version 1.3","2013-04-15",347,"F",81,"G",1948,74,49.984086,1.5514585,"Vente","Maison Individuelle","93290","93","Rue de Normandie (Pont) Longroy",0.75
"3CL","3CL-DPE, version 1.3","2013-04-12",439,"F",102,"G",1948,64.34,,,"Location","Logement","94130","94",,0
"Méthode 3CL","3CL-DPE, version 1.3","2013-04-11",344,"F",19,"C",1989,39,48.8968254,2.2595942,"Vente","Logement","95800","95","Place des trois frères Rocquigny (Parc) Courbevoie",0.73
"3CL","Version 1.3","2013-04-08",319.91,"E",18.2,"C",1976,102.38,48.3731394,6.9259729,"Vente","Maison Individuelle","63000","01","Chemin de la Bruyère Moyenmoutier",0.79
"3CL - DPE","V2012","2013-04-23",373.3,"F",19.83,"C",1949,48,,,"Vente","Logement","2304","02",,0
"Méthode Facture",,"2013-04-24",192,"D",2,"A",1947,250,46.128443,3.325279,"Vente","Maison Individuelle","03110","03","12 Route de Vendat 03110 Espinasse-Vozelle",0.57
"Méthode 3CL","3CL-DPE, version 1.3","2013-05-10",571,"G",34,"D",1983,57,43.7679617,1.4480438,"Vente","Maison Individuelle","04500","04","Chemin de Sainte-Croix Gargas",0.91
"Méthode 3CL","3CL-DPE, version 1.3","2013-04-20",631,"G",38,"E",1978,44,,,"Vente","Logement","05600","05",,0
"Méthode 3CL","3CL-DPE, version 1.3","2013-04-11",63,"B",14,"C",2006,95.45,,,"Location","Logement","06270","06",,0
"Méthode 3CL","3CL-DPE, version 1.3","2013-04-19",279,"E",3,"A",1948,173,,,"Vente","Maison Individuelle","07400","07",,0
"Méthode Facture",,"2013-05-03",0,"N",0,"N",1947,60,,,"Vente","Maison Individuelle","08000","08",,0
"Méthode 3CL","3CL-DPE, version 1.3","2013-05-11",123,"C",28,"D",1989,131.79,,,"Vente","Maison Individuelle",,"09",,0
"Méthode 3CL","3CL-DPE, version 1.3","2013-05-03",246,"E",14,"C",2006,103.38,48.212424,4.090748,"Vente","Maison Individuelle","10260","10","22 Rue des Clos 10800 Moussey",0.57
"Méthode 3CL","3CL-DPE, version 1.3","2013-04-15",195,"D",9,"B",1989,35,,,"Vente","Maison Individuelle","11430","11",,0
"3CL - DPE","V2012","2013-05-10",477.58,"G",122.91,"G",1974,76.43,45.7763415,4.8109737,"Location","Maison Individuelle","12043","12","Petit Parc Serin Lyon",0.88
"3CL","3CL-DPE, version 1.3","2013-04-12",210,"D",12,"C",1981,94.32,,,"Vente","Maison Individuelle","13011","13",,0
"3CL","3CL-DPE, version 1.3","2013-04-14",287,"E",15,"C",1989,95,48.1851916,-1.9176185,"Vente","Maison Individuelle","14790","14","Rue du Clos des Pommiers (Route en construction) Pleumeleuc",0.78
"Méthode 3CL","3CL-DPE, version 1.3","2013-05-21",269,"E",63,"F",1948,108,44.8860186,2.3812812,"Vente","Maison Individuelle","15000","15","Chemin Reliant à la Rue des Alouettes Ytrac",0.76
"FACTURE - DPE","V2012","2013-04-09",28.26,"A",6.61,"B",2006,87.5,45.63127,0.166008,"Neuf","Maison Individuelle","16015","16","Hameau des Rossignols 16000 Angoulême",0.86
"3CL - DPE","V2012","2013-04-12",185.9,"D",3.54,"A",1949,136.58,45.773156,-1.155143,"Vente","Maison Individuelle","17452","17","55 Rue de la Garde 17390 La Tremblade",0.56
"3CL - DPE","V2012","2013-04-25",0,"N",0,"N",1800,77.32,47.1550129,2.1399598,"Vente","Maison Individuelle","18014","18","Domaine de La Brosse (Corps de ferme) Brinay",0.9
"Méthode Facture",,"2013-05-16",122,"C",3,"A",1947,58,45.349488,1.638347,"Vente","Logement","19100","19","26 Rue Hortense Martin 19700 Lagraulière",0.62
"Méthode 3CL","3CL-DPE, version 1.3","2013-04-23",189,"D",7,"B",2001,50.52,,,"Vente","Logement","21000","21",,0
"FACTURE","VERSION_2012","2013-05-01",410.77,"F",13.37,"C",1947,70,48.701707,-3.372819,"Vente","Maison Individuelle","22030","22","Chemin Kerangars 22300 Caouënnec-Lanvézéac",0.55
"TROIS_CL_DPE","VERSION_2012","2013-04-23",678.34,"G",36.63,"E",1966,92,46.255045,1.76284,"Vente","Maison Individuelle","23036","23","1 Rue Paul Chaumanet 23320 Bussière-Dunoise",0.38
"Méthode 3CL","3CL-DPE, version 1.3","2013-05-03",226,"D",10,"B",2006,90,,,"Vente","Maison Individuelle","24200","24",,0
"Méthode 3CL","3CL-DPE, version 1.3","2013-05-02",638,"G",168,"G",1948,90,,,"Vente","Maison Individuelle","25200","25",,0
"Méthode 3CL","3CL-DPE, version 1.3","2013-04-18",209,"D",49,"E",1948,103.89,,,"Vente","Maison Individuelle","26800","26",,0
"TROIS_CL_DPE","VERSION_2012","2013-04-22",166.83,"D",39.03,"E",2008,106,49.171582,1.331484,"Location","Maison Individuelle","27022","27","14 Rue de la Crequinière 27940 Le Val d'Hazey",0.57
"Méthode 3CL","3CL-DPE, version 1.3","2013-04-15",380,"F",21,"D",1948,77,48.538401,1.153282,"Vente","Maison Individuelle","28130","28","18 Rue de Milleschamps 28250 Digny",0.54
"TROIS_CL_DPE","VERSION_2012","2013-04-23",240.53,"E",53.8,"E",1968,96.74,47.856283,-4.038611,"Vente","Maison Individuelle","29058","29","15 Chemin de Ménez Rouz 29170 Fouesnant",0.71
"Méthode 3CL","3CL-DPE, version 1.3","2013-05-06",138,"C",32,"D",7000,94.73,,,"Location","Logement","20000","2A",,0
"Méthode 3CL","3CL-DPE, version 1.3","2013-05-16",130,"C",5,"A",2006,129.59,,,"Vente","Maison Individuelle","20233","2B",,0
"Méthode 3CL","3CL-DPE, version 1.3","2013-04-17",181,"D",9,"B",2006,72,,,"Vente","Logement","30420","30",,0
"3CL","3CL-DPE, version 1.3","2013-04-09",221,"D",11,"C",2001,49.41,,,"Vente","Logement","31300","31",,0
"Méthode 3CL","3CL-DPE, version 1.3","2013-04-16",448,"F",57,"F",1948,92,48.7122073,6.1690476,"Vente","Maison Individuelle","32190","32","Rue Lafayette (Pont) Maxéville",0.73
"3CL","3CL-DPE, version 1.3","2013-04-10",160,"D",7,"B",2006,127.88,,,"Vente","Maison Individuelle","33650","33",,0
"3CL","3CL-DPE, version 1.3","2013-04-09",437,"F",42,"E",1948,43.86,,,"Location","Logement","34080","34",,0
"Facture","facture","2013-04-12",0,"N",0,"N",1948,30,48.188557,-1.227916,"Vente","Maison Individuelle","35330","35","La Gillouardais 35500 Taillis",0.6
"Méthode Facture",,"2013-04-12",204,"D",31,"D",1947,147,46.539363,1.639672,"Vente","Maison Individuelle","36160","36","Champ de la Tuilerie 36190 Pommiers",0.3
"3CL - DPE","V2012","2013-04-11",112.31,"C",33.69,"D",1900,133.07,47.503267,0.686748,"Vente","Maison Individuelle","37047","37","62 Rue du Gué Bolin 37390 Cerelles",0.39
"Méthode Facture",,"2013-04-05",217,"D",65,"F",1,50.46,,,"Vente","Logement","38270","38",,0
"3CL - DPE","V2012","2013-05-04",262.83,"E",10.11,"B",1975,88,46.872955,5.434772,"Vente","Maison Individuelle","39472","39","1 Chemin de la Louvaire 39230 Rye",0.93
"Méthode 3CL","3CL-DPE, version 1.3","2013-04-18",179,"D",8,"B",2006,95,43.652674,-0.795046,"Location","Maison Individuelle","40090","40","Route de Labartouille 40360 Donzacq",0.59
"3CL - DPE","V2012","2013-04-15",200.64,"D",60.19,"F",1974,164.67,47.496332,1.114069,"Vente","Maison Individuelle","41137","41","22 Route de la Grivelière 41150 Mesland",0.79
"3CL - DPE","V2012","2013-04-09",318.57,"E",74.55,"F",1970,75.93,45.433924,4.415696,"Vente","Logement","42218","42","146 Rue de la Richelandiere 42100 Saint-Étienne",0.96
"3CL - DPE","V2012","2013-04-04",329.24,"E",18.54,"C",2008,91.64,45.402658,3.311797,"Vente","Maison Individuelle","43185","43","3 Impasse Marielle et Elvire Barbier 43250 Sainte-Florine",0.92
"3CL - DPE","V2012","2013-04-11",319.73,"E",17.31,"C",2002,82.2,48.1036629,1.3873032,"Vente","Maison Individuelle","44008","44","Rue Sainte-Anne (Chemin) Donnemain-Saint-Mamès",0.79
"TROIS_CL_DPE","VERSION_2012","2013-04-15",319.72,"E",17.91,"C",2004,43.04,43.6746482,4.6373871,"Location","Logement","45006","45","Boulevard Victor Hugo (Pont) Arles",0.75
"3CL - DPE","V2012","2013-05-07",201.16,"D",45.34,"E",1974,201,44.707559,1.4579855,"Vente","Maison Individuelle","46241","46","(Hôtel de ville) Saint-Cirq-Souillaguet",0.89
"3CL - DPE","V2012","2013-05-02",149.26,"C",7.26,"B",1991,124,,,"Vente","Maison Individuelle","47017","47",,0
"Méthode Facture",,"2013-05-07",0,"N",0,"N",1947,75,,,"Vente","Maison Individuelle","48250","48",,0
"Méthode 3CL","3CL-DPE, version 1.3","2013-04-19",621,"G",38,"E",1948,86,47.40476,-0.922122,"Vente","Maison Individuelle","49160","49","Rue du Champ de Foire 49123 Ingrandes-Le Fresne sur Loire",0.53
"Méthode 3CL","3CL-DPE, version 1.3","2013-04-15",285,"E",85,"G",1948,140,,,"Vente","Maison Individuelle","50690","50",,0
"Méthode 3CL","3CL-DPE, version 1.3","2013-04-24",300,"E",16,"C",1978,98,48.640368,4.688924,"Vente","Maison Individuelle","51300","51","17 Grande Rue 51290 Isle-sur-Marne",0.31
"Méthode Facture",,"2013-05-06",360,"F",6,"B",1947,113,48.053535,5.590389,"Vente","Maison Individuelle","52320","52","Rue de la Grande Violette 52240 Merrey",0.65
"Méthode 3CL","3CL-DPE, version 1.3","2013-04-19",260,"E",54,"E",1948,85,48.119494,-0.719943,"Location","Maison Individuelle","53140","53","19 Rue des Rosiers 53950 Louverné",0.57
"3CL - DPE","V2012","2013-04-15",324.64,"E",18.68,"C",1974,56.08,,,"Vente","Maison Individuelle","001","54",,0
"Méthode Facture",,"2013-04-17",0,"N",0,"N",1947,68,49.335826,5.116506,"Vente","Maison Individuelle","55140","55","4 Rue de la Fontaine 55110 Cunel",0.44
"3CL","3CL-DPE, version 1.3","2013-04-10",355,"F",80,"F",1948,65,,,"Vente","Maison Individuelle","56870","56",,0
"TROIS_CL_DPE","VERSION_2012","2013-04-12",292.08,"E",87.62,"G",1960,152.8,48.0306183,3.8526043,"Vente","Maison Individuelle","57048","57","Chemin dit de la Rue de la Forêt Courtaoult",0.76
"3CL - DPE","V2012","2013-05-03",212,"D",11,"C",2005,91,43.6827478,3.0958678,"Vente","Maison Individuelle","02198","58","Chemin Graissessac",0.8
"Méthode 3CL","3CL-DPE, version 1.3","2013-04-16",137,"C",32,"D",1983,159,47.8096684,7.3370124,"Vente","Maison Individuelle","59930","59","Parking de la Rue Schweitzer Wittenheim",0.75
"Méthode 3CL","3CL-DPE, version 1.3","2013-04-19",272,"E",16,"C",1948,150,49.2395945,3.0910139,"Vente","Maison Individuelle","60000","60","Rue de la Briqueterie (Piste cyclable) Villers-Cotterêts",0.74
"Méthode 3CL","3CL-DPE, version 1.3","2013-04-16",570,"G",35,"D",1948,52,48.739442,0.38894,"Vente","Maison Individuelle","61150","61","8 Rue des Jardins 61370 Échauffour",0.46
"3CL - DPE","V2012","2013-04-12",250.75,"E",58.68,"F",1930,118.6,50.5245588,2.6051878,"Vente","Maison Individuelle","62119","62","Rue De Gaulle (Arrêt de bus) Fouquereuil",0.7
"3CL - DPE","V2012","2013-04-12",0,"N",0,"N",1920,42,45.444084,3.287816,"Vente","Maison Individuelle","63031","63","Rue des Combes 63570 Beaulieu",0.93
"Méthode Facture",,"2013-04-19",255,"E",59,"F",1947,53.1,,,"Vente","Logement","64200","64",,0
"3CL - DPE","V2012","2013-04-15",646.25,"G",40.7,"E",1956,88.7,,,"Vente","Maison Individuelle","65360","65",,0
"3CL - DPE","V2012","2013-04-04",0,"N",0,"N",1900,65,42.568255,2.32296,"Vente","Maison Individuelle","66193","66","45 Rue du Sola 66360 Serdinya",0.85
"3CL - DPE","V2012","2013-04-17",302.14,"E",15.89,"C",1983,59,48.5546412,1.0344735,"Vente","Logement","67073","67","Avenue de la Rue Clémenceau (Chemin piéton) Senonches",0.74
"Méthode 3CL","3CL-DPE, version 1.3","2013-04-15",289,"E",86,"G",1978,89,47.777198,7.29112,"Vente","Maison Individuelle","68270","68","5 Rue du Moulin 68120 Richwiller",0.63
"3CL","3CL-DPE, version 1.3","2013-04-10",117,"C",27,"D",1948,95,47.7267746,1.9395875,"Location","Logement","69470","69","Rue Général Leclerc (Pont) La Ferté-Saint-Aubin",0.81
"3CL - DPE","V2012","2013-04-23",224.98,"D",12.56,"C",1947,128,47.629849,6.649898,"Vente","Maison Individuelle","70064","70","4 Route de Courmont 70400 Belverne",0.52
"Méthode Facture",,"2013-04-18",0,"N",0,"N",1947,76,46.525504,4.729732,"Vente","Maison Individuelle","71130","71","Le Bas du Tregot 71460 Chissey-lès-Mâcon",0.41
"Méthode 3CL","3CL-DPE, version 1.3","2013-04-19",154,"D",36,"E",1948,168,,,"Vente","Maison Individuelle","72000","72",,0
"Méthode Facture",,"2013-05-03",313,"E",73,"F",1947,60,,,"Location","Logement","73300","73",,0
"3CL","3CL-DPE, version 1.3","2013-04-11",507,"G",27,"D",1975,20.9,45.957477,6.386931,"Vente","Logement","74110","74","Rte de la Resistance 74130 Glières-Val-de-Borne",0.33
"Méthode Facture",,"2013-04-11",324,"E",75,"F",1947,54.89,,,"Vente","Logement","75012","75",,0
"3CL - DPE","V2012","2013-04-10",251.07,"E",58.75,"F",1965,61.8,44.0123893,2.9642761,"Vente","Logement","76183","76","Rue du Barry (Pont) Saint-Rome-de-Cernon",0.81
"FACTURE","VERSION_2012","2013-04-11",104.95,"C",1.62,"A",1900,54,48.972512,3.149432,"Location","Logement","77078","77","Rue de la Sonnette 77260 Chamigny",0.46
"FACTURE","VERSION_2012","2013-04-12",261.42,"E",0,"A",1970,8.75,48.7621386,2.1483769,"Vente","Logement","78646","78","Rue Mansart (Chemin piéton) Les Loges-en-Josas",0.75
"3CL - DPE","V2012","2013-04-10",398.09,"F",86.58,"G",1963,71.5,46.823742,-0.660334,"Vente","Maison Individuelle","79062","79","1 Rue Bir Hakeim 79140 Cerizay",0.82
"Méthode Facture",,"2013-04-11",196,"D",36,"E",1947,154,48.84711,2.4519766,"Vente","Maison Individuelle","80300","80","Rue Félix Faure (Piste cyclable) Vincennes",0.7
"Méthode 3CL","3CL-DPE, version 1.3","2013-05-02",161,"D",37,"E",1948,142.44,,,"Vente","Maison Individuelle","81000","81",,0
"3CL - DPE","V2012","2013-04-24",234.65,"E",4.47,"A",1999,99.86,44.033073,1.354823,"Vente","Maison Individuelle","82121","82","990 Avenue de Falguières 82000 Montauban",0.96
"3CL - DPE","V2012","2013-04-09",129.95,"C",30.41,"D",1961,52.71,46.6867224,4.3589338,"Vente","Logement","83034","83","Avenue des Alouettes (Pont) Montceau-les-Mines",0.81
"Méthode 3CL","3CL-DPE, version 1.3","2013-04-15",479,"G",25,"D",1948,118.25,,,"Vente","Maison Individuelle","84400","84",,0
"Méthode 3CL","3CL-DPE, version 1.3","2013-05-02",343,"F",103,"G",1948,95,46.6392395,3.7538613,"Vente","Maison Individuelle","85170","85","Le Petit Robinson (Restaurant) Bourbon-Lancy",0.89
"3CL - DPE","V2012","2013-04-15",290.32,"E",54.57,"E",1972,151,46.542613,0.288405,"Vente","Maison Individuelle","86088","86","Rue de la Berlanderie 86240 Croutelle",0.5
"3CL - DPE","V2012","2013-04-16",443.48,"F",103.78,"G",1953,98,,,"Vente","Maison Individuelle","87030","87",,0
"3CL - DPE","V2012","2013-04-13",375.22,"F",50.22,"E",1962,90,,,"Vente","Maison Individuelle","88002","88",,0
"Méthode Facture",,"2013-04-16",568,"G",155,"G",1947,70,47.5050205,4.0907974,"Vente","Maison Individuelle","89420","89","Autoroute du Soleil (Pont) Savigny-en-Terre-Plaine",0.71
"Méthode 3CL","3CL-DPE, version 1.3","2013-04-15",315,"E",18,"C",1983,65.94,,,"Location","Logement","90000","90",,0
"Méthode 3CL","3CL-DPE, version 1.3","2013-04-16",345,"F",19,"C",1989,27.5,49.2931911,1.0040867,"Location","Logement","91430","91","Rue Guynemer (Pont) Elbeuf",0.9
"3CL","Version 1.3","2013-04-17",182.63,"D",42.74,"E",1978,69.56,,,"Location","Logement","63000","92",,0
"FACTURE","VERSION_2012","2013-04-16",238.69,"E",55.85,"E",1930,81,43.116722,1.611349,"Vente","Maison Individuelle","93079","93","Maison au 28 rue Gabriel-Péri (Patrimoine national) Pamiers",0.76
"3CL - DPE","V2012","2013-04-13",210.37,"D",10.01,"B",2007,82,48.0787878,7.3488239,"Vente","Logement","94058","94","Avenue du Général de Gaulle (Pont) Colmar",0.81
"Méthode Facture",,"2013-04-12",157,"D",4,"A",1947,104.2,50.6229358,3.0921994,"Vente","Logement","95170","95","Rue Louis Braille (Chemin piéton) Lille",0.76
"3CL","Version 1.3","2013-04-05",148.09,"C",34.65,"D",2004,114.8,,,"Vente","Maison Individuelle","63000","01",,0
"3CL - DPE","V2012","2013-04-24",169.12,"D",37.84,"E",1949,86,,,"Vente","Logement","2304","02",,0
"Méthode Facture",,"2013-04-16",431,"F",12,"C",1,70.8,44.9211246,4.8973253,"Location","Logement","03000","03","Rue de Serbie (Pont) Valence",0.72
"Méthode 3CL","3CL-DPE, version 1.3","2013-05-10",75,"B",17,"C",1992,140,,,"Vente","Maison Individuelle","04160","04",,0
"Méthode 3CL","3CL-DPE, version 1.3","2013-04-19",278,"E",14,"C",1989,63.75,,,"Vente","Logement","05200","05",,0
"Méthode Facture",,"2013-04-13",294,"E",68,"F",1947,72.47,,,"Location","Logement","06600","06",,0
"Méthode 3CL","3CL-DPE, version 1.3","2013-04-19",341,"F",4,"A",1948,116,,,"Vente","Maison Individuelle","07400","07",,0
"Méthode Facture",,"2013-05-03",0,"N",0,"N",1947,45.77,,,"Vente","Logement","08000","08",,0
"Méthode 3CL","3CL-DPE, version 1.3","2013-05-06",348,"F",81,"G",1948,41.15,44.7508103,5.3728951,"Location","Logement","09300","09","Avenue Maréchal Leclerc (Pont) Die",0.8
"Méthode Facture",,"2013-05-03",0,"N",0,"N",1947,35,,,"Location","Logement","10000","10",,0
"Méthode 3CL","3CL-DPE, version 1.3","2013-04-15",195,"D",9,"B",1989,35,,,"Vente","Maison Individuelle","11430","11",,0
"3CL - DPE","V2012","2013-05-10",477.58,"G",122.91,"G",1974,76.43,45.7763415,4.8109737,"Location","Maison Individuelle","12043","12","Petit Parc Serin Lyon",0.88
"Méthode 3CL","3CL-DPE, version 1.3","2013-04-14",199,"D",46,"E",1948,88.55,,,"Vente","Logement","13190","13",,0
"Méthode Facture",,"2013-04-17",0,"N",0,"N",1947,16,,,"Vente","Logement","14360","14",,0
"Méthode Facture",,"2013-05-21",202,"D",29,"D",1947,80,,,"Vente","Logement","15000","15",,0
"FACTURE - DPE","V2012","2013-04-09",28.32,"A",6.63,"B",2006,87.5,45.63127,0.166008,"Neuf","Maison Individuelle","16015","16","Hameau des Rossignols 16000 Angoulême",0.86
"3CL - DPE","V2012","2013-04-11",0,"N",0,"N",1900,75,44.2361942,1.7721781,"Vente","Logement","17300","17","Rue des Cloutiers (Chemin piéton) Caylus",0.8
"3CL - DPE","V2012","2013-04-26",215.33,"D",10.53,"B",1998,86.43,47.290458,2.445076,"Vente","Maison Individuelle","18001","18","Les Sainjons 18250 Achères",0.57
"Méthode Facture",,"2013-05-17",239,"E",38,"E",1947,104,,,"Vente","Maison Individuelle","19100","19",,0
"Méthode 3CL","3CL-DPE, version 1.3","2013-04-25",260,"E",60,"F",1948,51,,,"Location","Logement","21000","21",,0
"TROIS_CL_DPE","VERSION_2012","2013-05-01",224.24,"D",10.43,"B",1978,77.34,48.704041,-3.37482,"Vente","Maison Individuelle","22030","22","7 Rue de la Mairie 22300 Caouënnec-Lanvézéac",0.51
"TROIS_CL_DPE","VERSION_2012","2013-04-23",397.75,"F",22.87,"D",1966,75,,,"Location","Maison Individuelle","23060","23",,0
"3CL - DPE","V2012","2013-05-06",241.63,"E",54.63,"E",1974,142.44,,,"Vente","Maison Individuelle","24074","24",,0
"Méthode Facture",,"2013-05-02",0,"N",0,"N",1947,80.7,47.2731534,6.004642,"Vente","Maison Individuelle","25000","25","Chemin de Valentin Besançon",0.8
"Méthode Facture",,"2013-04-19",253,"E",58,"F",1,67,43.0372084,-0.0695476,"Vente","Logement","26780","26","Résidence Bellevue (Chalet) Agos-Vidalos",0.9
"TROIS_CL_DPE","VERSION_2012","2013-04-22",110.25,"C",25.79,"D",2004,106.38,49.171582,1.331484,"Location","Maison Individuelle","27022","27","14 Rue de la Crequinière 27940 Le Val d'Hazey",0.57
"Méthode Facture",,"2013-04-17",173,"D",5,"A",1947,301,48.15627,4.0385218,"Vente","Maison Individuelle","28700","28","Chemin Grande Rue Lirey",0.76
"3CL - DPE","V2012","2013-04-23",280.3,"E",13.11,"C",1982,85.39,47.877589,-3.473302,"Vente","Maison Individuelle","29002","29","Kerioualan 29300 Arzano",0.52
"Méthode 3CL","3CL-DPE, version 1.3","2013-05-07",361,"F",19,"C",1948,54.87,48.6432504,7.6682625,"Location","Logement","20137","2A","Rue de la Citadelle (Pont) Pfulgriesheim",0.81
"3CL - DPE","V2012","2013-05-20",229.25,"D",9.68,"B",2000,44.69,,,"Vente","Logement","20150","2B",,0
"Méthode Facture",,"2013-04-15",307,"E",10,"B",1947,119.6,,,"Vente","Logement","30160","30",,0
"3CL","3CL-DPE, version 1.3","2013-04-09",166,"D",8,"B",1989,85,43.5920439,1.3989799,"Location","Maison Individuelle","31100","31","Avenue de Lardenne (Pont) Toulouse",0.73
"TROIS_CL_DPE","VERSION_2012","2013-04-19",208.37,"D",10.65,"B",1985,100,43.6417119,0.5950781,"Vente","Maison Individuelle","32001","32","Résidence Les Terrasses (Zone résidentielle) Auch",0.9
"3CL","3CL-DPE, version 1.3","2013-04-09",383,"F",19,"C",1948,31.88,48.4567734,1.4824689,"Location","Maison Individuelle","33850","33","Rue de l'Arbre de la Liberté (Pont) Chartres",0.77
"3CL - DPE","V2012","2013-04-12",220.11,"D",10.93,"B",1989,87,48.7794043,1.9770831,"Vente","Maison Individuelle","34022","34","École maternelle Edouard Manet Trappes",0.72
"Méthode Facture",,"2013-04-15",196,"D",45,"E",1,15.12,49.9306433,4.0097587,"Vente","Logement","35700","35","Rue de Fougères (Pont) Ohis",0.7
"Méthode Facture",,"2013-04-10",159,"D",37,"E",1947,65.73,46.624318,2.011099,"Vente","Maison Individuelle","36100","36","1 Rue Raymond Lejot 36400 Lourouer-Saint-Laurent",0.45
"Méthode Facture",,"2013-04-08",413,"F",96,"G",1,26,,,"Location","Logement","37000","37",,0
"Méthode 3CL","3CL-DPE, version 1.3","2013-04-11",226,"D",8,"B",2006,105,45.376369,5.54365,"Vente","Maison Individuelle","38270","38","Lotissement le Mas de la Murette 38140 La Murette",0.43
"3CL - DPE","V2012","2013-05-07",288,"E",67,"F",1975,70,47.090939,5.484573,"Location","Logement","39198","39","38 Avenue Georges Pompidou 39100 Dole",0.95
"Méthode 3CL","3CL-DPE, version 1.3","2013-04-19",201,"D",6,"B",2005,80,43.656332,-0.804234,"Vente","Maison Individuelle","40090","40","Rue de l'Eglise 40360 Donzacq",0.45
"3CL - DPE","V2012","2013-04-15",276.81,"E",64.77,"F",1975,108.25,47.608259,1.138565,"Vente","Maison Individuelle","41101","41","21 Rue du Moulin à Vent 41190 Herbault",0.94
"Méthode Facture",,"2013-04-24",160,"D",37,"E",1947,116.5,46.0510482,3.9217134,"Vente","Maison Individuelle","42370","42","Place Crionnet (Parking) Renaison",0.74
"3CL - DPE","V2012","2013-04-02",213.11,"D",6.94,"B",1900,123,47.9910304,2.212915,"Vente","Maison Individuelle","43128","43","Le Bourg (Bar) Ingrannes",0.9
"3CL - DPE","V2012","2013-04-12",229.87,"D",10.96,"B",2010,71.5,47.3376126,-1.5253187,"Location","Logement","44109","44","Route de Carquefou (Pont) Sucé-sur-Erdre",0.81
"Méthode 3CL","3CL-DPE, version 1.3","2013-04-16",502,"G",123,"G",1975,77.93,48.298319,2.406674,"Vente","Maison Individuelle","45190","45","6 Avenue Jean Cocteau 45330 Le Malesherbois",0.4
"3CL - DPE","V2012","2013-05-07",97.52,"C",4.01,"A",2005,89,44.815456,1.540524,"Vente","Maison Individuelle","46047","46","Combel de la Croze 46350 Calès",0.31
"FACTURE - DPE","V2012","2013-05-02",197.67,"D",23.02,"D",1948,284,44.056108,0.258047,"Vente","Maison Individuelle","47167","47","2 Boulevard Armand Fallieres 47170 Mézin",0.94
"Méthode 3CL","3CL-DPE, version 1.3","2013-05-15",509,"G",136,"G",1948,140,,,"Vente","Maison Individuelle","48300","48",,0
"TROIS_CL_DPE","VERSION_2012","2013-04-19",214.15,"D",11.87,"C",1999,140,49.4433354,1.0939142,"Vente","Maison Individuelle","49007","49","Place du 19 Avril 1944 (Fontaine) Rouen",0.72
"Méthode 3CL","3CL-DPE, version 1.3","2013-04-16",129,"C",30,"D",1989,125,49.243658,-1.316983,"Vente","Maison Individuelle","50470","50","36 Les Forges 50500 Terre-et-Marais",0.41
"Méthode Facture",,"2013-04-24",0,"N",0,"N",1947,110,48.639376,4.689998,"Vente","Maison Individuelle","51300","51","Ruelle du Gord 51290 Isle-sur-Marne",0.33
"Méthode Facture",,"2013-05-06",348,"F",11,"C",1947,47,48.279839,4.971269,"Vente","Logement","52100","52","22 Rue de l'Eglise 52330 Colombey les Deux Églises",0.34
"Méthode Facture",,"2013-04-22",159,"D",33,"D",1947,114.7,45.0837488,2.750937,"Vente","Maison Individuelle","53950","53","Gare (Pont) Laveissière",0.89
"3CL - DPE","V2012","2013-04-15",318.17,"E",18.23,"C",1974,56.08,,,"Vente","Maison Individuelle","001","54",,0
"Méthode 3CL","3CL-DPE, version 1.3","2013-04-23",353,"F",105,"G",1948,77,48.849697,5.368727,"Vente","Maison Individuelle","55210","55","Rue de la Graviere 55260 Gimécourt",0.44
"3CL - DPE","V2012","2013-04-13",581.05,"G",32.93,"D",1950,31.68,48.5147866,0.5466223,"Location","Logement","56121","56","Collège Emile Chartier (École) Saint-Langis-lès-Mortagne",0.76
"TROIS_CL_DPE","VERSION_2012","2013-04-18",212.59,"D",14.83,"C",2013,47.5,49.104397,6.592339,"Location","Logement","57047","57","23 Rue Pierre Klein 57690 Bambiderstroff",0.94
"3CL - DPE","V2012","2013-05-06",170.72,"D",39.95,"E",2000,54.52,46.827491,3.462544,"Copropriété","Logement","58095","58","18 Rue Paul Bert 58300 Decize",0.95
"Méthode Facture",,"2013-04-09",153,"D",36,"E",1947,88,50.258917,3.230088,"Vente","Maison Individuelle","59300","59","Rue du Général de Gaulle 59247 Hem-Lenglet",0.35
"Méthode 3CL","3CL-DPE, version 1.3","2013-04-11",428,"F",102,"G",1948,75,49.2395945,3.0910139,"Vente","Maison Individuelle","60000","60","Rue de la Briqueterie (Piste cyclable) Villers-Cotterêts",0.74
"Méthode Facture",,"2013-04-17",154,"D",46,"E",1947,262,48.557896,0.620118,"Vente","Maison Individuelle","61160","61","Lieu Dit Chatillon 61400 Feings",0.52
"Méthode 3CL","3CL-DPE, version 1.3","2013-04-21",636,"G",134,"G",1948,64.13,48.6096416,5.0462072,"Vente","Maison Individuelle","62330","62","Rue Basse (Pont) Chamouilley",0.89
"3CL - DPE","V2012","2013-04-24",360.96,"F",21.19,"D",1978,89.13,45.423026,3.324242,"Vente","Maison Individuelle","63050","63","5 Rue des Rivaux 63570 Brassac-les-Mines",0.94
"3CL - DPE","V2012","2013-04-19",212.95,"D",9.92,"B",1965,65.65,48.6676467,6.2030034,"Location","Logement","64445","64","Rue du Maréchal Foch (Pont) Jarville-la-Malgrange",0.82
"3CL - DPE","V2012","2013-04-15",92.9,"C",3.36,"A",2006,128.45,43.132594,-0.026902,"Vente","Maison Individuelle","65002","65","Rue des Arriouats 65100 Adé",0.32
"3CL - DPE","V2012","2013-04-04",105.47,"C",21.53,"D",1981,92,42.676074,2.906725,"Vente","Logement","66136","66","12 Rue du Roc du Midi 66100 Perpignan",0.91
"Méthode 3CL","3CL-DPE, version 1.3","2013-04-18",136,"C",31,"D",2001,79.42,48.6771984,7.6185315,"Vente","Logement","67960","67","Reitwiller - Route de Strasbourg (Arrêt de bus) Berstett",0.78
"Méthode 3CL","3CL-DPE, version 1.3","2013-04-19",300,"E",70,"F",1948,66.78,48.7104246,2.5596714,"Vente","Logement","68000","68","ZA Rue des Perdrix (Zone industrielle) Mandres-les-Roses",0.77
"3CL","3CL-DPE, version 1.3","2013-04-11",203,"D",9,"B",1989,128,,,"Location","Maison Individuelle","69730","69",,0
"3CL - DPE","V2012","2013-04-27",169.82,"D",39.74,"E",1947,150,47.633774,6.652107,"Vente","Maison Individuelle","70064","70","Rue des Champs de France 70400 Belverne",0.49
"Méthode Facture",,"2013-04-19",378,"F",38,"E",1947,89,49.2421165,6.1338305,"Vente","Maison Individuelle","71430","71","Hôtel St Eloi Amnéville",0.89
"3CL - DPE","V2012","2013-04-23",225.35,"D",44.28,"E",1975,77,48.197153,-0.083538,"Location","Maison Individuelle","72109","72","Lieu Dit les Renaudieres 72140 Crissé",0.54
"3CL - DPE","V2012","2013-05-03",233.33,"E",54.6,"E",1987,99.34,45.652314,5.892085,"Vente","Maison Individuelle","73328","73","168 R du Colonel Bachetta 73420 Viviers-du-Lac",0.82
"3CL","3CL-DPE, version 1.3","2013-04-12",89,"B",4,"A",1989,319.45,46.2787548,6.0223463,"Vente","Maison Individuelle","74140","74","Chemin de la Crêt Crozet",0.78
"FACTURE","VERSION_2012","2013-04-12",377.68,"F",12.29,"C",1850,38.9,45.7556987,3.2442648,"Vente","Logement","75112","75","Petite Rue Traversière (Chemin piéton) Mezel",0.75
"Méthode 3CL","3CL-DPE, version 1.3","2013-04-15",293,"E",16,"C",2006,100,42.4050859,2.4781228,"Vente","Maison Individuelle","76910","76","Rue de l'Hospice (Pont) Prats-de-Mollo-la-Preste",0.8
"TROIS_CL_DPE","VERSION_2012","2013-04-15",298.79,"E",14.17,"C",1995,32,,,"Vente","Logement","77150","77",,0
"3CL","Version 1.3","2013-04-15",70.51,"B",3.95,"A",2009,203.39,49.4845616,6.2535542,"Vente","Maison Individuelle","63000","78","Rue Pasteur (Pont) Puttelange-lès-Thionville",0.98
"3CL - DPE","V2012","2013-04-12",293.51,"E",13.15,"C",1949,44,46.632877,-0.580934,"Location","Maison Individuelle","79001","79","10 Rue des Hauts de Gâtine 79240 L'Absie",0.61
"Méthode 3CL","3CL-DPE, version 1.3","2013-04-09",212,"D",9,"B",2001,60.05,,,"Location","Logement","80000","80",,0
"Méthode 3CL","3CL-DPE, version 1.3","2013-05-05",245,"E",57,"F",1948,35,45.550822,4.5852738,"Location","Logement","81000","81","(Aire de pique-nique) Saint-Martin-la-Plaine",0.72
"3CL - DPE","V2012","2013-05-02",728.51,"G",47.16,"E",1973,28.03,44.015901,1.361981,"Vente","Logement","82121","82","24 Rue Joseph Lakanal 82000 Montauban",0.88
"3CL","3CL-DPE, version 1.3","2013-04-09",80,"B",2,"A",2001,148,,,"Vente","Maison Individuelle","83470","83",,0
"Méthode 3CL","3CL-DPE, version 1.3","2013-04-16",112,"C",33,"D",1948,202.97,,,"Vente","Maison Individuelle","84400","84",,0
"Méthode Facture",,"2013-04-29",127,"C",24,"D",1947,152,46.8373625,-1.5645344,"Vente","Maison Individuelle","85170","85","Chemin de la Vrignaudière à la Renardière Beaufou",0.89
"Méthode 3CL","3CL-DPE, version 1.3","2013-04-15",153,"D",46,"E",1975,130.21,46.3696642,3.0627392,"Vente","Maison Individuelle","86800","86","Route de Chantelle (Pont) Deux-Chaises",0.77
"Méthode 3CL","3CL-DPE, version 1.3","2013-04-16",268,"E",14,"C",2001,96.4,45.968463,1.008709,"Location","Maison Individuelle","87110","87","Le Haut Mont Genie 87520 Oradour-sur-Glane",0.35
"3CL - DPE","V2012","2013-04-13",288.31,"E",61.44,"F",1960,90,48.287122,6.470653,"Location","Maison Individuelle","88143","88","1 Rue de Derriere la Ville 88330 Domèvre-sur-Durbion",0.93
"Méthode 3CL","3CL-DPE, version 1.3","2013-05-06",217,"D",65,"F",1978,185,48.019488,3.247454,"Vente","Maison Individuelle","89440","89","Chemin des Bideaux 89330 Verlin",0.49
"3CL - DPE","V2012","2013-04-15",282.52,"E",66.11,"F",1850,132,47.733096,6.781353,"Vente","Maison Individuelle","90005","90","4 Rue du Général de Gaulle 90200 Auxelles-Bas",0.49
"Méthode 3CL","3CL-DPE, version 1.3","2013-04-05",392,"F",117,"G",1948,70,47.2525999,-1.4770125,"Vente","Maison Individuelle","91360","91","Rue du Pavillon (Pont) Sainte-Luce-sur-Loire",0.79
"FACTURE - DPE","V2012","2013-04-18",489.93,"G",114.64,"G",1974,81.71,48.898433,2.24025,"Vente","Logement","92026","92","48 Boulevard de la Mission Marchand 92400 Courbevoie",0.96
"FACTURE","VERSION_2012","2013-04-16",238.69,"E",55.85,"E",1930,81,43.116722,1.611349,"Vente","Maison Individuelle","93079","93","Maison au 28 rue Gabriel-Péri (Patrimoine national) Pamiers",0.76
"Méthode 3CL","3CL-DPE, version 1.3","2013-04-11",233,"E",22,"D",2006,39,,,"Location","Logement","94230","94",,0
"Méthode 3CL","3CL-DPE, version 1.3","2013-04-11",218,"D",51,"E",1948,67.38,,,"Vente","Logement","95170","95",,0
"Méthode 3CL","3CL-DPE, version 1.3","2013-04-16",210,"D",11,"C",2000,120.62,46.1890848,5.6834292,"Vente","Maison Individuelle","01340","01","Le Village-d'en-haut (Zone résidentielle) Charix",0.89
"3CL - DPE","V2012","2013-04-29",418.21,"F",77.25,"F",1952,54,,,"Vente","Maison Individuelle","2738","02",,0
"Méthode Facture",,"2013-04-16",431,"F",12,"C",1,70.8,44.9211246,4.8973253,"Location","Logement","03000","03","Rue de Serbie (Pont) Valence",0.72
"3CL - DPE","V2012","2013-05-15",241,"E",12,"C",2007,84,44.2153367,5.9241679,"Location","Maison Individuelle","04233","04","Hôtel Les Chênes Sisteron",0.9
"Méthode 3CL","3CL-DPE, version 1.3","2013-04-23",319,"E",77,"F",1948,86,49.3885707,2.8340977,"Vente","Logement","05000","05","Route de la Justice (Chemin) Compiègne",0.78
"Méthode 3CL","3CL-DPE, version 1.3","2013-04-15",214,"D",8,"B",1993,38.26,43.5572779,6.9610313,"Vente","Logement","06150","06","Avenue Maurice Chevalier (Pont) Cannes",0.71
"TROIS_CL_DPE","VERSION_2012","2013-04-19",124.33,"C",48.9,"E",2005,140,44.630647,4.505322,"Vente","Maison Individuelle","07077","07","Petit Aumac 07170 Darbres",0.35
"Méthode 3CL","3CL-DPE, version 1.3","2013-05-03",222,"D",52,"E",1948,71.59,49.4845616,6.2535542,"Vente","Logement","08700","08","Rue Pasteur (Pont) Puttelange-lès-Thionville",0.83
"Méthode Facture",,"2013-05-11",431,"F",11,"C",1947,126.84,,,"Vente","Maison Individuelle","09240","09",,0
"FACTURE - DPE","V2012","2013-05-02",70.19,"N",2.29,"N",1948,116,48.022102,4.106802,"Vente","Maison Individuelle","10120","10","3 Rue du Chesnoy 10210 Cussangy",0.55
"Méthode 3CL","3CL-DPE, version 1.3","2013-04-16",182,"D",9,"B",1978,40,,,"Vente","Maison Individuelle","11430","11",,0
"3CL - DPE","V2012","2013-05-10",650.2,"G",173.79,"G",1974,80.17,44.546615,2.411726,"Vente","Maison Individuelle","12076","12","Rue du Fraysse 12320 Conques-en-Rouergue",0.51
"Méthode 3CL","3CL-DPE, version 1.3","2013-04-15",214,"D",7,"B",1989,22.64,,,"Vente","Logement","13012","13",,0
"Méthode 3CL","3CL-DPE, version 1.3","2013-04-18",270,"E",66,"F",1948,100,48.985191,0.268082,"Vente","Maison Individuelle","14420","14","Chemin les Vents 14140 Livarot-Pays-d'Auge",0.39
"FACTURE","VERSION_2012","2013-05-23",325.78,"E",76.62,"F",1900,107,44.947434,2.954009,"Vente","Maison Individuelle","15099","15","Les Pres de Tagenac (Neuvéglise) 15260 Neuvéglise-sur-Truyère",0.54
"FACTURE - DPE","V2012","2013-04-09",28.26,"A",6.61,"B",2006,87.5,45.63127,0.166008,"Neuf","Maison Individuelle","16015","16","Hameau des Rossignols 16000 Angoulême",0.86
"3CL - DPE","V2012","2013-04-11",0,"N",0,"N",1900,37.9,44.2361942,1.7721781,"Vente","Logement","17300","17","Rue des Cloutiers (Chemin piéton) Caylus",0.8
"3CL - DPE","V2012","2013-05-02",224.28,"D",48.65,"E",1850,193.48,47.212617,2.447658,"Vente","Maison Individuelle","18189","18","L'Orgevaux 18110 Quantilly",0.94
"Méthode 3CL","3CL-DPE, version 1.3","2013-05-21",385,"F",18,"C",1975,99,45.401202,1.4769,"Location","Maison Individuelle","19270","19","Route de Vigeois 19230 Troche",0.42
"Méthode 3CL","3CL-DPE, version 1.3","2013-04-22",381,"F",90,"G",1948,87.6,48.9541481,2.3923135,"Vente","Maison Individuelle","21000","21","Avenue de Stalingrad (Pont) Stains",0.78
"Méthode 3CL","3CL-DPE, version 1.3","2013-05-02",163,"D",8,"B",2006,76,,,"Location","Maison Individuelle","22240","22",,0
"Méthode 3CL","3CL-DPE, version 1.3","2013-04-25",255,"E",23,"D",1978,115.5,44.134406,4.8032741,"Vente","Maison Individuelle","23110","23","Lotissement Clos des Thermes (Zone résidentielle) Orange",0.79
"3CL - DPE","V2012","2013-05-06",440.66,"F",27.81,"D",1970,132,44.640154,1.034442,"Vente","Maison Individuelle","24386","24","Le Moulin du Bourg 24550 Saint-Cernin-de-l'Herm",0.91
"Méthode 3CL","3CL-DPE, version 1.3","2013-05-03",294,"E",16,"C",1993,40.95,47.3229,6.01265,"Vente","Logement","25200","25","Rue des Vignes 25870 Devecey",0.4
"Méthode 3CL","3CL-DPE, version 1.3","2013-04-19",242,"E",56,"F",1951,68.11,,,"Vente","Logement","26000","26",,0
"Méthode Facture",,"2013-04-19",182,"D",22,"D",1947,133,43.0155385,3.0603298,"Vente","Maison Individuelle","27120","27","Rue du Soleil Levant (Chemin piéton) Port-la-Nouvelle",0.81
"3CL","3CL-DPE, version 1.3","2013-04-26",396,"F",88,"G",1948,61,,,"Vente","Maison Individuelle","28700","28",,0
"TROIS_CL_DPE","VERSION_2012","2013-04-26",225.56,"D",9.77,"B",2008,119,47.800039,-4.275271,"Vente","Maison Individuelle","29072","29","4 Rue du Ménez 29730 Guilvinec",0.58
"Méthode Facture",,"2013-04-25",155,"D",5,"A",1947,100,,,"Vente","Maison Individuelle","20171","2A",,0
"Méthode 3CL","3CL-DPE, version 1.3","2013-05-21",408,"F",19,"C",1975,19.73,,,"Vente","Maison Individuelle","20290","2B",,0
"Méthode Facture",,"2013-04-19",192,"D",56,"F",1947,50.26,,,"Location","Logement","30000","30",,0
"3CL","3CL-DPE, version 1.3","2013-04-09",209,"D",10,"B",2001,40.55,43.5854082,1.3421759,"Vente","Logement","31170","31","Boulevard Eugène Montel (Piste cyclable) Tournefeuille",0.79
"Méthode Facture",,"2013-04-09",251,"E",8,"B",1947,159,43.4309398,0.5793226,"Vente","Maison Individuelle","32140","32","Borne de Charge, Avenue Jules Duffort, Masseube (Station de recharge) Masseube",0.78
"3CL - DPE","V2012","2013-04-03",243.98,"E",57.09,"F",1940,125,44.2093708,-1.2474402,"Vente","Maison Individuelle","33199","33","Avenue de la Plage (Pont) Mimizan",0.81
"Méthode Facture",,"2013-04-12",97,"C",27,"D",1,36,,,"Vente","Logement","34280","34",,0
"Méthode 3CL","3CL-DPE, version 1.3","2013-04-15",308,"E",51,"E",1962,64,,,"Vente","Maison Individuelle","35650","35",,0
"Méthode Facture",,"2013-04-25",215,"D",7,"B",1947,118.01,,,"Vente","Maison Individuelle","36260","36",,0
"3CL - DPE","V2012","2013-04-10",245.72,"E",6.11,"B",1850,87,47.392693,0.645223,"Vente","Maison Individuelle","37109","37","Quai de la Guignière 37230 Fondettes",0.42
"Méthode 3CL","3CL-DPE, version 1.3","2013-04-15",399,"F",99,"G",1948,115,45.376369,5.54365,"Vente","Maison Individuelle","38270","38","Lotissement le Mas de la Murette 38140 La Murette",0.44
"3CL - DPE","V2012","2013-05-07",288,"E",67,"F",1975,70,47.090939,5.484573,"Location","Logement","39198","39","38 Avenue Georges Pompidou 39100 Dole",0.95
"Méthode 3CL","3CL-DPE, version 1.3","2013-04-23",206,"D",9,"B",2005,80,,,"Vente","Maison Individuelle","40270","40",,0
"3CL - DPE","V2012","2013-04-15",200.64,"D",60.19,"F",1974,164.67,47.496332,1.114069,"Vente","Maison Individuelle","41137","41","22 Route de la Grivelière 41150 Mesland",0.79
"Méthode Facture",,"2013-04-26",177,"D",41,"E",1947,64,46.104603,4.302248,"Vente","Maison Individuelle","42300","42","Rue du Grand Chemin 42460 Sevelinges",0.31
"3CL - DPE","V2012","2013-04-11",0,"N",0,"N",1930,102,44.959292,3.548333,"Vente","Maison Individuelle","43234","43","Rue des Prés 43170 Saugues",0.94
"Méthode 3CL","3CL-DPE, version 1.3","2013-04-14",189,"D",44,"E",1948,74.67,48.0700651,-0.8362805,"Vente","Logement","44600","44","Rue de Bretagne (Pont) Saint-Berthevin",0.79
"Méthode Facture",,"2013-04-17",173,"D",40,"E",1947,121,48.4840371,3.3572074,"Vente","Maison Individuelle","45140","45","Rue du Pont des Chaises Hermé",0.74
"3CL - DPE","V2012","2013-05-08",84.47,"B",3.81,"A",2005,89,44.815456,1.540524,"Vente","Maison Individuelle","46047","46","Combel de la Croze 46350 Calès",0.31
"FACTURE - DPE","V2012","2013-05-04",0,"N",0,"N",1948,106,44.203686,0.617432,"Vente","Logement","47001","47","76 Rue Montesquieu 47000 Agen",0.95
"Méthode 3CL","3CL-DPE, version 1.3","2013-05-17",484,"G",145,"G",1978,83,46.2844516,6.2504983,"Vente","Maison Individuelle","48300","48","Chemin des Lombards Veigy-Foncenex",0.84
"TROIS_CL_DPE","VERSION_2012","2013-04-19",104.67,"C",5.47,"A",1985,300,,,"Vente","Maison Individuelle","49007","49",,0
"Méthode 3CL","3CL-DPE, version 1.3","2013-04-16",229,"D",18,"C",1948,97.48,49.199073,-0.935634,"Vente","Maison Individuelle","50110","50","2 Rue de la Chapelle de l'Epine 50680 Cerisy-la-Forêt",0.51
"TROIS_CL_DPE","VERSION_2012","2013-04-30",590.85,"G",31.54,"D",1967,97,47.1035512,5.8822726,"Vente","Maison Individuelle","51050","51","Parking Place Saint-Martin Quingey",0.78
"Méthode Facture",,"2013-05-06",184,"D",5,"A",1947,220,48.22233,4.886009,"Vente","Logement","52100","52","22 Rue de l'Eglise 52330 Colombey les Deux Églises",0.32
"Méthode 3CL","3CL-DPE, version 1.3","2013-04-23",304,"E",71,"F",1948,109.62,43.6501648,6.9254094,"Vente","Maison Individuelle","53000","53","Caserne de Gendarmerie Kellermann (Police) Grasse",0.7
"Méthode Facture",,"2013-04-13",222,"D",5,"A",1946,109,,,"Vente","Maison Individuelle","54800","54",,0
"Méthode Facture",,"2013-04-29",0,"N",0,"N",1947,120.66,48.579386,5.462555,"Location","Maison Individuelle","55150","55","10 Rue du Grand Pont 55130 Demange-Baudignécourt",0.43
"3CL","3CL-DPE, version 1.3","2013-04-11",557,"G",31,"D",1983,21.7,47.5541265,-2.9285533,"Vente","Logement","56740","56","Pointe de Kerpenhir (Point de vue) Locmariaquer",0.71
"FACTURE","VERSION_2012","2013-04-18",0,"A",0,"A",1900,129,49.1659209,6.95195,"Vente","Maison Individuelle","57222","57","Rue de Kehrbach (Arrêt de bus) Behren-lès-Forbach",0.78
"3CL - DPE","V2012","2013-05-06",262.62,"E",61.45,"F",2000,50.7,46.827491,3.462544,"Copropriété","Logement","58095","58","18 Rue Paul Bert 58300 Decize",0.95
"Méthode Facture",,"2013-04-05",141,"C",33,"D",1947,125,,,"Vente","Maison Individuelle","59990","59",,0
"Méthode Facture",,"2013-04-12",327,"E",10,"B",1,63.83,50.780563,2.4724968,"Neuf","Maison Individuelle","60120","60","Rue Neuve (Pont) Oxelaëre",0.89
"Méthode 3CL","3CL-DPE, version 1.3","2013-04-17",1122,"G",74,"F",1948,70,47.9910304,2.212915,"Vente","Maison Individuelle","61600","61","Le Bourg (Bar) Ingrannes",0.9
"Méthode Facture",,"2013-04-23",438,"F",14,"C",1947,158,50.729431,1.585637,"Vente","Maison Individuelle","62160","62","Rue Léon Calon 62200 Boulogne-sur-Mer",0.49
"3CL - DPE","V2012","2013-04-24",699.89,"G",133.05,"G",1952,96.12,45.427565,3.304715,"Vente","Maison Individuelle","63050","63","8 Place des Hba (bayard) 63570 Brassac-les-Mines",0.38
"Méthode 3CL","3CL-DPE, version 1.3","2013-04-22",358,"F",19,"C",1983,44.85,,,"Location","Logement","64700","64",,0
"3CL - DPE","V2012","2013-04-16",224.1,"D",42.14,"E",1961,78.84,43.141784,-0.027367,"Vente","Maison Individuelle","65002","65","7 Rue du Hameau Mie Doumene 65100 Adé",0.34
"3CL - DPE","V2012","2013-04-06",352.32,"F",21.75,"D",1983,125.5,42.566441,2.378863,"Vente","Maison Individuelle","66057","66","21 Carrer d'Avall 66820 Corneilla-de-Conflent",0.58
"Méthode Facture",,"2013-04-20",174,"D",52,"E",1947,42,47.4756025,7.366869,"Location","Logement","67000","67","Rue des Serruriers (Pont) Raedersdorf",0.81
"Méthode 3CL","3CL-DPE, version 1.3","2013-04-24",322,"E",16,"C",1989,43,,,"Location","Logement","68730","68",,0
"3CL","3CL-DPE, version 1.3","2013-04-12",278,"E",13,"C",1975,127.67,,,"Vente","Maison Individuelle","69330","69",,0
"3CL - DPE","V2012","2013-05-02",241.9,"E",56.6,"F",1947,90,43.7919853,4.8165979,"Vente","Maison Individuelle","70064","70","Avenue Albert Gleizes (Pont) Saint-Rémy-de-Provence",0.71
"Méthode 3CL","3CL-DPE, version 1.3","2013-04-19",359,"F",27,"D",1989,46.21,46.204309,4.334784,"Location","Maison Individuelle","71120","71","Impasse du Capricorne 71170 Chauffailles",0.32
"TROIS_CL_DPE","VERSION_2012","2013-04-26",640.97,"G",124.5,"G",1980,50,,,"Vente","Maison Individuelle","72181","72",,0
"Méthode 3CL","3CL-DPE, version 1.3","2013-05-03",218,"D",40,"E",1948,76.84,47.3452112,-1.1605732,"Vente","Logement","73000","73","Rue d'Anjou (Pont) Orée-d'Anjou",0.72
"Méthode 3CL","3CL-DPE, version 1.3","2013-04-05",466,"G",25,"D",1989,41.58,47.9482149,2.5421479,"Vente","Logement","74310","74","Route de Bellegarde (Pont) Chailly-en-Gâtinais",0.76
"Méthode Facture",,"2013-04-12",309,"E",10,"B",1,80,48.8392672,2.3919749,"Vente","Logement","75012","75","Boulevard de Reuilly (Piste cyclable) Paris",0.78
"3CL - DPE","V2012","2013-04-15",33.93,"A",7.94,"B",1900,300,45.8905631,4.7320886,"Vente","Maison Individuelle","76183","76","Rue de Maupas (Chemin) Les Chères",0.89
"FACTURE","VERSION_2012","2013-04-15",104.95,"C",1.62,"A",1900,54,48.972512,3.149432,"Location","Logement","77078","77","Rue de la Sonnette 77260 Chamigny",0.46
"Méthode Facture",,"2013-04-17",0,"N",0,"N",1947,50.07,48.5742069,1.939264,"Vente","Maison Individuelle","78000","78","Rue du Docteur Rémond (Pont) Saint-Arnoult-en-Yvelines",0.81
"3CL - DPE","V2012","2013-04-12",0,"N",0,"N",1947,66.12,46.976996,-0.472933,"Vente","Maison Individuelle","79013","79","4 Rue de la Liberte 79150 Argentonnay",0.94
"Méthode 3CL","3CL-DPE, version 1.3","2013-04-12",118,"C",5,"A",2006,105.9,50.0083731,1.7335037,"Location","Maison Individuelle","80200","80","Rue du Tour des Haies (Chemin) Saint-Maxent",0.78
"Méthode Facture",,"2013-05-06",218,"D",7,"B",1800,118,47.4194496,5.847446,"Vente","Maison Individuelle","81710","81","Rue du Pont du Four Bucey-lès-Gy",0.71
"Méthode 3CL","3CL-DPE, version 1.3","2013-03-26",413,"F",27,"D",1978,75,44.0421387,1.4594429,"Location","Maison Individuelle","82350","82","Route de la Tauge (Pont) Saint-Étienne-de-Tulmont",0.81
"3CL","3CL-DPE, version 1.3","2013-04-10",504,"G",30,"D",1948,63,43.1770308,5.9296188,"Vente","Maison Individuelle","83170","83","Chemin de la Foux Le Revest-les-Eaux",0.77
"Méthode 3CL","3CL-DPE, version 1.3","2013-04-18",265,"E",12,"C",1948,84.73,47.4383059,2.1948125,"Vente","Maison Individuelle","84400","84","Allée des Loriots (Chemin) Souesmes",0.83
"Méthode 3CL","3CL-DPE, version 1.3","2013-05-02",427,"F",25,"D",1948,39,47.3572106,0.8041711,"Location","Maison Individuelle","85000","85","Rue Serpentine (Piste cyclable) Véretz",0.89
"3CL - DPE","V2012","2013-04-16",448.6,"F",22.65,"D",1950,78.85,46.650526,0.371566,"Location","Maison Individuelle","86062","86","Rue de la Croix Blanche 86360 Chasseneuil-du-Poitou",0.46
"3CL - DPE","V2012","2013-04-18",225.13,"D",10.49,"B",2002,122.5,45.991396,1.040764,"Vente","Maison Individuelle","87045","87","Route de Saint-junien 87520 Cieux",0.84
"3CL - DPE","V2012","2013-04-14",362.4,"F",17.66,"C",1981,99,48.155958,6.422962,"Vente","Maison Individuelle","88087","88","207 Rue du Général de Gaulle 88000 Chantraine",0.61
"Méthode Facture",,"2013-05-03",0,"N",0,"N",1947,94,47.733184,6.1286254,"Vente","Maison Individuelle","89630","89","Chemin de la Californie Provenchère",0.74
"Méthode 3CL","3CL-DPE, version 1.3","2013-04-15",243,"E",57,"F",1991,79,48.8599506,2.4363732,"Vente","Logement","90000","90","Le Rue Parmentier (Restaurant) Montreuil",0.79
"TROIS_CL_DPE","VERSION_2012","2013-04-16",340.35,"F",79.64,"F",1970,98.5,47.6552669,6.8425626,"Vente","Maison Individuelle","91312","91","Rue de la 1re Armée Française (Pont) Belfort",0.73
"Méthode 3CL","3CL-DPE, version 1.3","2013-04-22",349,"F",21,"D",1989,97,,,"Location","Logement","92350","92",,0
"FACTURE","VERSION_2012","2013-04-16",238.69,"E",55.85,"E",1930,81,43.116722,1.611349,"Vente","Maison Individuelle","93079","93","Maison au 28 rue Gabriel-Péri (Patrimoine national) Pamiers",0.76
"3CL - DPE","V2012","2013-04-24",492.84,"G",29.14,"D",1982,55.81,42.9827652,1.1460761,"Location","Logement","94073","94","(Place de marché) Saint-Girons",0.77
"Méthode 3CL","3CL-DPE, version 1.3","2013-04-15",411,"F",96,"G",1975,94,48.4092749,2.7983259,"Vente","Maison Individuelle","95100","95","Ru des Aulnettes (Ruisseau) Champagne-sur-Seine",0.74
"Méthode 3CL","3CL-DPE, version 1.3","2013-04-18",221,"D",32,"D",1972,170,45.82426,5.610937,"Vente","Maison Individuelle","01100","01","Chemin de la Barriere 01510 Cheignieu-la-Balme",0.52
"3CL - DPE","V2012","2013-04-29",364.61,"F",85.32,"G",1952,80,,,"Vente","Maison Individuelle","2059","02",,0
"Méthode Facture",,"2013-04-25",344,"F",94,"G",1947,53,49.1125233,1.7050849,"Vente","Maison Individuelle","03130","03","Chemin du Coudray Chaussy",0.71
"3CL - DPE","V2012","2013-05-18",170,"D",51,"E",1966,172,44.109209,6.011664,"Vente","Maison Individuelle","04244","04","La Coueste 04290 Volonne",0.57
"Méthode 3CL","3CL-DPE, version 1.3","2013-04-28",561,"G",31,"D",1978,20.75,43.6847869,3.8350024,"Vente","Logement","05200","05","Hameau des Vignes (Arrêt de bus) Saint-Clément-de-Rivière",0.89
"Méthode 3CL","3CL-DPE, version 1.3","2013-04-15",272,"E",63,"F",1983,122.52,,,"Location","Logement","06150","06",,0
"TROIS_CL_DPE","VERSION_2012","2013-04-22",124.33,"C",48.9,"E",2005,140,44.630647,4.505322,"Vente","Maison Individuelle","07077","07","Petit Aumac 07170 Darbres",0.35
"Méthode Facture",,"2013-05-03",419,"F",9,"B",1947,80.26,49.549871,4.927063,"Location","Maison Individuelle","08430","08","Rue du Paquis 08390 Stonne",0.42
"Méthode 3CL","3CL-DPE, version 1.3","2013-05-11",147,"C",8,"B",2006,319.89,,,"Vente","Maison Individuelle","09100","09",,0
"3CL - DPE","2012","2013-05-06",442.95,"F",103.65,"G",1949,126,48.295661,4.047286,"Vente","Maison Individuelle","10362","10","73 Rue Louis Blanc 10300 Sainte-Savine",0.95
"3CL - DPE","V2012","2013-04-17",151.38,"D",5.58,"A",1982,46.6,42.845983,3.03564,"Vente","Maison Individuelle","11202","11","38 Résidence Hameau des Pécheurs 11370 Leucate",0.95
"3CL - DPE","V2012","2013-05-10",650.2,"G",173.79,"G",1974,80.17,44.546615,2.411726,"Vente","Maison Individuelle","12076","12","Rue du Fraysse 12320 Conques-en-Rouergue",0.51
"Méthode 3CL","3CL-DPE, version 1.3","2013-04-15",142,"C",18,"C",1948,56.31,49.213224,2.3849774,"Location","Logement","13002","13","Chemin dit Rue de Méry Villers-sous-Saint-Leu",0.73
"Méthode 3CL","3CL-DPE, version 1.3","2013-04-18",307,"E",18,"C",1981,69.8,,,"Vente","Logement","14800","14",,0
"3cl","V2012","2013-05-23",245,"E",73,"F",1960,155.5,45.439584,2.521433,"Vente","Maison Individuelle","15092","15","2 Rue des Monts Dore 15270 Lanobre",0.5
"FACTURE - DPE","V2012","2013-04-09",29.62,"A",6.93,"B",2006,87.5,45.63127,0.166008,"Neuf","Maison Individuelle","16015","16","Hameau des Rossignols 16000 Angoulême",0.86
"3CL - DPE","V2012","2013-04-11",0,"N",0,"N",1900,25.6,44.2361942,1.7721781,"Vente","Logement","17300","17","Rue des Cloutiers (Chemin piéton) Caylus",0.8
"TROIS_CL_DPE","VERSION_2012","2013-05-03",165.11,"D",9.48,"B",1980,300.85,47.239029,2.023561,"Vente","Maison Individuelle","18150","18","Chemin des Assis 18100 Méry-sur-Cher",0.49
"Méthode 3CL","3CL-DPE, version 1.3","2013-05-21",192,"D",9,"B",2009,115,45.407804,1.473305,"Vente","Maison Individuelle","19270","19","Chemin des Magnes Hautes 19230 Troche",0.45
"Méthode 3CL","3CL-DPE, version 1.3","2013-04-26",153,"D",35,"D",2000,82,48.8437293,2.43234,"Vente","Logement","21000","21","17 Avenue Franklin Roosevelt (Parking à vélos) Vincennes",0.72
"3CL - DPE","V2012","2013-05-02",335.87,"F",21.29,"D",1940,126,48.336606,-2.250646,"Vente","Maison Individuelle","22020","22","La Marais 22250 Broons",0.49
"FACTURE","VERSION_2012","2013-05-01",0,"A",0,"A",1930,47,46.155883,1.572336,"Vente","Maison Individuelle","23047","23","11 Rue de la Tour 23240 Chamborand",0.36
"FACTURE - DPE","V2012","2013-05-02",0,"N",0,"N",1948,330,45.359622,0.572517,"Vente","Maison Individuelle","24430","24","Barneuil 24310 Brantôme en Périgord",0.94
"Méthode 3CL","3CL-DPE, version 1.3","2013-05-04",301,"E",15,"C",1978,131.8,47.191786,6.512232,"Vente","Maison Individuelle","25550","25","17 Rue du Val 25510 La Sommette",0.44
"Méthode 3CL","3CL-DPE, version 1.3","2013-04-17",206,"D",10,"B",2010,89,,,"Vente","Maison Individuelle","26210","26",,0
"TROIS_CL_DPE","VERSION_2012","2013-04-23",118.4,"C",27.7,"D",2008,106,49.171582,1.331484,"Location","Maison Individuelle","27022","27","14 Rue de la Crequinière 27940 Le Val d'Hazey",0.57
"Méthode 3CL","3CL-DPE, version 1.3","2013-04-26",262,"E",14,"C",1997,101,,,"Vente","Maison Individuelle","28320","28",,0
"TROIS_CL_DPE","VERSION_2012","2013-04-30",208,"D",48.67,"E",1966,77.15,48.000162,-4.099582,"Vente","Logement","29232","29","8 Rue de Creac H Al Lan 29000 Quimper",0.77
"Méthode Facture",,"2013-05-06",264,"E",8,"B",1947,64.93,47.2880861,-1.5513282,"Vente","Logement","20000","2A","Rue Mérimée (Piste cyclable) La Chapelle-sur-Erdre",0.75
"3CL - DPE","V2012","2013-05-16",264.46,"E",11.81,"C",1982,28.25,42.707634,9.442439,"Location","Logement","20033","2B","Résidence Sainte-lucie 20200 Bastia",0.84
"Méthode 3CL","3CL-DPE, version 1.3","2013-04-19",630,"G",37,"E",1948,27.24,,,"Vente","Logement","30240","30",,0
"3CL","3CL-DPE, version 1.3","2013-04-09",210,"D",11,"C",1989,58.31,,,"Vente","Logement","31100","31",,0
"TROIS_CL_DPE","VERSION_2012","2013-04-19",208.37,"D",10.65,"B",1985,100,43.6417119,0.5950781,"Vente","Maison Individuelle","32001","32","Résidence Les Terrasses (Zone résidentielle) Auch",0.9
"3CL - DPE","V2012","2013-04-09",207.68,"D",48.6,"E",1968,86.94,44.795835,-0.631546,"Vente","Logement","33318","33","1 Rue Armand Calmon 33600 Pessac",0.96
"3CL - DPE","V2012","2013-04-13",140.77,"C",5.51,"A",2008,119,43.662396,3.941756,"Vente","Maison Individuelle","34090","34","7 Avenue Monteroni d'Arbia 34920 Le Crès",0.95
"Méthode 3CL","3CL-DPE, version 1.3","2013-04-15",308,"E",51,"E",1962,64,,,"Vente","Maison Individuelle","35650","35",,0
"Méthode Facture",,"2013-04-29",153,"D",41,"E",1947,85,,,"Vente","Maison Individuelle","36400","36",,0
"3CL - DPE","V2012","2013-04-16",180.78,"D",44.37,"E",1968,76.29,47.343663,0.661421,"Vente","Logement","37122","37","16 Rue Jacques Poirrier 37300 Joué-lès-Tours",0.96
"Méthode Facture",,"2013-04-22",98,"C",22,"D",1947,58,44.1374121,4.8064862,"Location","Logement","38370","38","41, rue Victor Hugo (Vêtements) Orange",0.76
"Méthode 3CL","3CL-DPE, version 1.3","2013-05-07",322,"E",18,"C",2001,62.4,,,"Vente","Logement","39570","39",,0
"Méthode 3CL","3CL-DPE, version 1.3","2013-04-24",358,"F",4,"A",1948,83,43.748865,-0.359908,"Vente","Maison Individuelle","40240","40","Route de Duhort 40270 Renung",0.48
"3CL - DPE","V2012","2013-04-17",296.34,"E",14.4,"C",1985,111.6,47.424793,1.151563,"Vente","Maison Individuelle","41267","41","9 Rue de la Carte 41400 Vallières-les-Grandes",0.94
"Méthode Facture",,"2013-04-25",229,"D",68,"F",1947,100.9,,,"Vente","Maison Individuelle","42840","42",,0
"Méthode Facture",,"2013-04-16",0,"N",0,"N",1947,45,45.5347963,2.1512522,"Vente","Logement","43150","43","(Salle des fêtes) Meymac",0.89
"3CL - DPE","V2012","2013-04-16",213.02,"D",8.69,"B",2004,47.4,48.6120565,2.5105399,"Location","Logement","44162","44","Avenue Suzanne Lenglen (Chemin piéton) Saint-Pierre-du-Perray",0.73
"Méthode Facture",,"2013-04-18",172,"D",40,"E",1947,287.32,45.3211734,3.6975542,"Vente","Maison Individuelle","45190","45","Porte du For (Monument historique) La Chaise-Dieu",0.71
"3CL - DPE","V2012","2013-05-08",180.29,"D",41.4,"E",1982,201,44.707559,1.4579855,"Vente","Maison Individuelle","46241","46","(Hôtel de ville) Saint-Cirq-Souillaguet",0.89
"Méthode 3CL","3CL-DPE, version 1.3","2013-05-07",149,"C",8,"B",2006,152.28,45.0586282,4.8719458,"Vente","Maison Individuelle","47200","47","Impasse de la Roussane (Chemin) Mercurol-Veaunes",0.88
"Méthode Facture",,"2013-05-18",0,"N",0,"N",1947,75,,,"Vente","Maison Individuelle","48140","48",,0
"TROIS_CL_DPE","VERSION_2012","2013-04-19",104.67,"C",5.47,"A",1985,300,,,"Vente","Maison Individuelle","49007","49",,0
"Méthode 3CL","3CL-DPE, version 1.3","2013-04-16",173,"D",40,"E",1948,136,,,"Vente","Maison Individuelle","50000","50",,0
"TROIS_CL_DPE","VERSION_2012","2013-05-03",269.24,"E",15.56,"C",1991,2591,49.242573,4.023546,"Vente","Bâtiment collectif à usage principal d'habitation","51454","51","145 Rue de Courlancy 51100 Reims",0.64
"3CL - DPE","V2012","2013-05-03",429.44,"F",107.19,"G",1969,103.2,48.469043,4.761904,"Location","Maison Individuelle","52088","52","Rue de la Vigne 52220 Ceffonds",0.43
"Méthode Facture",,"2013-04-23",131,"C",27,"D",1947,166.14,47.874242,-0.522418,"Vente","Maison Individuelle","53110","53","6 Rue de Taude 53290 Grez-en-Bouère",0.33
"Méthode 3CL","3CL-DPE, version 1.3","2013-04-20",565,"G",30,"D",1948,85.5,48.15627,4.0385218,"Vente","Maison Individuelle","54120","54","Chemin Grande Rue Lirey",0.71
"Méthode 3CL","3CL-DPE, version 1.3","2013-04-10",323,"E",17,"C",1975,142,,,"Vente","Maison Individuelle","55000","55",,0
"3CL - DPE","V2012","2013-04-15",245.16,"E",13.21,"C",1984,99.62,45.528432,5.0727714,"Vente","Maison Individuelle","56063","56","Impasse des Bruyères (Chemin) Beauvoir-de-Marc",0.81
"TROIS_CL_DPE","VERSION_2012","2013-04-23",254.5,"E",59.78,"F",1964,143.7,45.671349,3.2398377,"Vente","Maison Individuelle","57008","57","Petite Rue de l'École (Chemin piéton) Saint-Maurice",0.74
"3CL - DPE","V2012","2013-05-03",124.03,"C",29.02,"D",2008,140,46.994118,3.080758,"Vente","Maison Individuelle","58160","58","21 Impasse du Caillat 58180 Marzy",0.94
"Méthode Facture",,"2013-04-16",0,"N",0,"N",1947,65,45.5248813,4.6085349,"Vente","Maison Individuelle","59970","59","Rue Édouard Vaillant (Pont) Rive-de-Gier",0.78
"Méthode 3CL","3CL-DPE, version 1.3","2013-04-22",329,"E",20,"C",1948,150,47.9977397,2.7367019,"Vente","Maison Individuelle","60190","60","Rue du Faubourg de la Chaussée (Pont) Montargis",0.74
"Méthode 3CL","3CL-DPE, version 1.3","2013-04-18",555,"G",27,"D",1948,70,,,"Vente","Maison Individuelle","61330","61",,0
"Méthode Facture",,"2013-04-12",260,"E",8,"B",1,75.47,,,"Neuf","Maison Individuelle","62950","62",,0
"Méthode 3CL","3CL-DPE, version 1.3","2013-04-30",356,"F",21,"D",2001,80,45.913085,2.64441,"Vente","Maison Individuelle","63460","63","5 Rue des Écoles 63380 Villosanges",0.44
"Méthode Facture",,"2013-04-22",0,"N",0,"N",1947,37,43.9502907,6.81136,"Location","Logement","64400","64","Rue de la Cathédrale (Escalier) Entrevaux",0.82
"3CL - DPE","V2012","2013-04-16",202.29,"D",41.68,"E",1900,50.66,43.135765,-0.028444,"Location","Logement","65002","65","1 Rue de la Hournère 65100 Adé",0.38
"3CL - DPE","V2012","2013-04-08",0,"N",0,"N",1900,142,42.552071,2.242372,"Vente","Maison Individuelle","66010","66","Cabrils 66360 Ayguatébia-Talau",0.51
"3CL - DPE","V2012","2013-04-19",293.64,"E",46.81,"E",1974,189.5,48.271851,7.402046,"Vente","Maison Individuelle","67073","67","2 Vieux Chemin de Selestat 67730 Châtenois",0.42
"Méthode 3CL","3CL-DPE, version 1.3","2013-04-24",244,"E",13,"C",2006,116,,,"Vente","Maison Individuelle","68600","68",,0
"3CL - DPE","V2012","2013-04-12",166.81,"D",39.03,"E",1960,76.08,43.6770657,7.2051999,"Location","Logement","69199","69","Allée Dei Verna (Chemin piéton) Nice",0.76
"3CL - DPE","V2012","2013-05-03",226.21,"D",10.44,"B",2006,115,47.887674,6.383574,"Vente","Maison Individuelle","70245","70","3 Les Chavannes 70220 Fougerolles-Saint-Valbert",0.94
"Méthode Facture",,"2013-04-22",0,"N",0,"N",1947,147,46.205379,4.338746,"Vente","Maison Individuelle","71120","71","Place de Bourgogne 71170 Chauffailles",0.6
"TROIS_CL_DPE","VERSION_2012","2013-04-26",640.97,"G",124.5,"G",1980,50,,,"Vente","Maison Individuelle","72181","72",,0
"3CL - DPE","V2012","2013-05-03",347.26,"F",81.26,"G",1850,70,45.707938,5.914516,"Vente","Maison Individuelle","73008","73","34 Che de Saint Simond 73100 Aix-les-Bains",0.76
"Méthode 3CL","3CL-DPE, version 1.3","2013-04-15",430,"F",27,"D",1976,101.45,46.257821,6.460097,"Vente","Maison Individuelle","74140","74","Rte des Crottets 74420 Habère-Poche",0.36
"FACTURE","VERSION_2012","2013-04-14",188.83,"D",6.14,"B",1850,38.9,45.7556987,3.2442648,"Vente","Logement","75112","75","Petite Rue Traversière (Chemin piéton) Mezel",0.75
"Méthode 3CL","3CL-DPE, version 1.3","2013-04-23",400,"F",23,"D",1978,48,,,"Location","Logement","76470","76",,0
"TROIS_CL_DPE","VERSION_2012","2013-04-16",309.98,"E",72.53,"F",1955,68.5,50.5692235,2.9666912,"Vente","Maison Individuelle","77002","77","Rue Georges Clemenceau (Pont) Gondecourt",0.83
"FACTURE","VERSION_2012","2013-04-18",0,"A",0,"A",1927,134.1,48.8432502,2.3787592,"Vente","Maison Individuelle","78048","78","Rue de Rambouillet (Piste cyclable) Paris",0.72
"3CL - DPE","V2012","2013-04-12",72.22,"B",19.79,"C",1947,58.5,46.893085,-0.459101,"Vente","Maison Individuelle","79049","79","5 Impasse du Lavoir Chambroutet 79300 Bressuire",0.67
"Méthode Facture",,"2013-04-10",0,"N",0,"N",1947,36,,,"Vente","Maison Individuelle","80000","80",,0
"Méthode 3CL","3CL-DPE, version 1.3","2013-05-07",264,"E",15,"C",2207,123.66,,,"Vente","Maison Individuelle","81990","81",,0
"Méthode 3CL","3CL-DPE, version 1.3","2013-05-15",233,"E",11,"C",2006,90,44.14349,0.968562,"Vente","Maison Individuelle","82170","82","Impasse des Pigeonniers 82400 Saint-Paul-d'Espis",0.42
"Facture","facture","2013-04-10",0,"N",0,"N",1948,120,,,"Vente","Maison Individuelle","83690","83",,0
"Méthode 3CL","3CL-DPE, version 1.3","2013-04-18",341,"F",73,"F",1948,56.39,43.4393718,5.0349441,"Vente","Maison Individuelle","84400","84","Aubert (Vêtements) Saint-Mitre-les-Remparts",0.8
"Méthode 3CL","3CL-DPE, version 1.3","2013-05-02",241,"E",12,"C",1978,74,46.3737725,-0.8704874,"Vente","Maison Individuelle","85570","85","Route de Fontenay (Pont) Vix",0.79
"Méthode 3CL","3CL-DPE, version 1.3","2013-04-16",321,"E",75,"F",1948,43,47.5812375,7.5536724,"Location","Logement","86500","86","Avenue du Général de Gaulle (Pont) Saint-Louis",0.73
"3CL - DPE","V2012","2013-04-16",246.19,"E",12.19,"C",1986,165,45.846415,0.882722,"Vente","Maison Individuelle","87030","87","1 Rue du Petit Royan 87200 Chaillac-sur-Vienne",0.42
"Méthode Facture",,"2013-04-15",0,"N",0,"N",1947,89,48.144116,6.683829,"Vente","Maison Individuelle","88420","88","Rue de la Mont 88600 La Neuveville-devant-Lépanges",0.41
"TROIS_CL_DPE","VERSION_2012","2013-05-13",757.99,"G",49.55,"E",1965,38,47.713418,2.929262,"Vente","Maison Individuelle","89046","89","Les Montagnes des Trotards 89220 Bléneau",0.32
"Méthode 3CL","3CL-DPE, version 1.3","2013-04-17",131,"C",30,"D",2010,85.61,48.1123887,1.9398912,"Location","Logement","90340","90","Impasse de la Mairie (Chemin) Ruan",0.82
"Méthode 3CL","3CL-DPE, version 1.3","2013-04-18",348,"F",18,"C",2006,40.74,48.651118,2.444527,"Location","Logement","91600","91","3 Avenue de la Libération 91450 Soisy-sur-Seine",0.59
"3CL - DPE","V2012","2013-04-22",180.11,"D",8.6,"B",2000,129.51,47.8626637,4.5802031,"Vente","Logement","92012","92","Rue de Seine (Pont) Châtillon-sur-Seine",0.72
"FACTURE","VERSION_2012","2013-04-16",238.69,"E",55.85,"E",1930,81,43.116722,1.611349,"Vente","Maison Individuelle","93079","93","Maison au 28 rue Gabriel-Péri (Patrimoine national) Pamiers",0.76
"Méthode Facture",,"2013-04-24",163,"D",38,"E",1947,174,49.4381798,1.111642,"Vente","Maison Individuelle","94130","94","Boulevard Gambetta (Pont) Rouen",0.77
"Méthode Facture",,"2013-04-13",155,"D",5,"A",1947,168,48.6986993,2.1644903,"Vente","Maison Individuelle","95190","95","Rue André Ampère (Pont) Bures-sur-Yvette",0.89
"Méthode 3CL","3CL-DPE, version 1.3","2013-04-18",258,"E",15,"C",1989,98,46.754957,-1.6780221,"Location","Maison Individuelle","01400","01","Lotissement Le Domaine du Lac 2 (Zone résidentielle) Maché",0.73
"Méthode Facture",,"2013-04-30",172,"D",40,"E",1947,140.16,43.4074471,5.9234424,"Location","Maison Individuelle","02120","02","Fontaine Rue Sadi-Carnot Tourves",0.72
"Méthode Facture",,"2013-05-02",422,"F",77,"F",1947,72.7,,,"Vente","Logement","03400","03",,0
"3CL - DPE","V2012","2013-05-18",211,"D",12,"C",2006,121,43.822629,5.858897,"Vente","Maison Individuelle","04230","04","75 Les Chabrands 04210 Valensole",0.94
"Méthode 3CL","3CL-DPE, version 1.3","2013-05-07",932,"G",60,"F",1948,41.2,48.3829196,-4.484692,"Vente","Logement","05160","05","Les Mouettes (Pub) Brest",0.9
"Méthode 3CL","3CL-DPE, version 1.3","2013-04-15",286,"E",45,"E",1948,50.71,,,"Location","Logement","06100","06",,0
"TROIS_CL_DPE","VERSION_2012","2013-04-22",290.44,"E",37.01,"E",1990,105,,,"Vente","Maison Individuelle","07077","07",,0
"FACTURE","VERSION_2012","2013-05-06",451.16,"G",10.1,"B",1900,71,49.758118,4.712404,"Vente","Maison Individuelle","08105","08","4 Boulevard de Chatillon 08000 Charleville-Mézières",0.96
"Méthode Facture",,"2013-05-14",153,"D",35,"D",1947,72,43.6007184,1.4517298,"Vente","Logement","09210","09","Station François Verdier, Sortie vers Rue de Metz, Ligne B, 31000 Toulouse (Escalier) Toulouse",0.74
"3CL - DPE","2012","2013-05-03",417.57,"F",24.06,"D",1975,75.6,48.36461,3.995098,"Vente","Maison Individuelle","10349","10","5 Rue Claude Debussy 10180 Saint-Lyé",0.94
"Méthode 3CL","3CL-DPE, version 1.3","2013-04-22",158,"D",7,"B",2006,40,,,"Vente","Logement","11100","11",,0
"Méthode Facture",,"2013-05-14",69,"B",4,"A",1947,60,47.9910304,2.212915,"Vente","Maison Individuelle","12360","12","Le Bourg (Bar) Ingrannes",0.9
"Méthode 3CL","3CL-DPE, version 1.3","2013-04-16",433,"F",24,"D",1948,24.98,47.145166,1.1272799,"Location","Logement","13005","13","Avenue des Chartreux (Chemin) Chemillé-sur-Indrois",0.78
"Méthode 3CL","3CL-DPE, version 1.3","2013-04-19",172,"D",40,"E",1983,104,48.9210128,2.1672345,"Vente","Maison Individuelle","14470","14","Rue des Petits Champs (Chemin) Carrières-sur-Seine",0.79
"TROIS_CL_DPE","VERSION_2012","2013-05-27",1020.86,"G",63.9,"F",1996,31.5,,,"Vente","Maison Individuelle","15007","15",,0
"FACTURE - DPE","V2012","2013-04-09",30.38,"A",7.11,"B",2006,87.5,45.63127,0.166008,"Neuf","Maison Individuelle","16015","16","Hameau des Rossignols 16000 Angoulême",0.86
"3CL - DPE","V2012","2013-04-11",0,"N",0,"N",1900,38,44.2361942,1.7721781,"Vente","Logement","17300","17","Rue des Cloutiers (Chemin piéton) Caylus",0.8
"Méthode 3CL","3CL-DPE, version 1.3","2013-05-02",304,"E",17,"C",1978,118.2,50.5370243,3.0065138,"Vente","Maison Individuelle","18570","18","Rue du Paradis (Chemin) Chemy",0.74
"Méthode 3CL","3CL-DPE, version 1.3","2013-05-22",246,"E",12,"C",2001,34,,,"Location","Logement","19100","19",,0
"Méthode Facture",,"2013-04-29",236,"E",36,"E",1947,82.7,44.1049078,3.0766731,"Vente","Maison Individuelle","21000","21","36 rue des Lilas (Maison d'hôte) Millau",0.73
"Méthode 3CL","3CL-DPE, version 1.3","2013-05-03",130,"C",30,"D",1989,77.4,49.7750339,3.999804,"Vente","Maison Individuelle","22440","22","Rue du Muguet (Chemin) Nampcelles-la-Cour",0.78
"FACTURE","VERSION_2012","2013-05-02",0,"A",0,"A",1900,135.5,,,"Vente","Maison Individuelle","23004","23",,0
"FACTURE - DPE","V2012","2013-05-02",0,"N",0,"N",1948,330,45.359622,0.572517,"Vente","Maison Individuelle","24430","24","Barneuil 24310 Brantôme en Périgord",0.94
"FACTURE - DPE","V2012","2013-04-22",0,"N",0,"N",1948,95.93,47.49666,6.531243,"Location","Maison Individuelle","25005","25","1 Rue de la Charrière 25250 Accolans",0.93
"FACTURE","VERSION_2012","2013-04-22",0,"A",0,"A",1800,43,,,"Location","Logement","26008","26",,0
"TROIS_CL_DPE","VERSION_2012","2013-04-23",263.05,"E",3.58,"A",1967,110,,,"Vente","Maison Individuelle","27048","27",,0
"Méthode 3CL","3CL-DPE, version 1.3","2013-04-29",256,"E",12,"C",1989,120,48.301607,1.825027,"Vente","Maison Individuelle","28210","28","Ruelle des Tacherons 28310 Levesville-la-Chenard",0.45
"Méthode 3CL","3CL-DPE, version 1.3","2013-05-02",187,"D",8,"B",2006,90,46.6672491,-1.3948954,"Vente","Maison Individuelle","29200","29","Agatha Christie (Arrêt de bus) La Roche-sur-Yon",0.74
"Méthode 3CL","3CL-DPE, version 1.3","2013-05-03",145,"C",6,"B",2004,166.22,42.536176,8.886676,"Vente","Maison Individuelle","20167","2A","Campo Communo 20214 Montegrosso",0.4
"3CL - DPE","V2012","2013-05-15",436.93,"F",25.72,"D",1950,74,44.1452936,4.8225288,"Vente","Logement","20057","2B","Hameau de Fanny (Zone résidentielle) Orange",0.78
"Méthode 3CL","3CL-DPE, version 1.3","2013-04-19",567,"G",132,"G",1948,29.13,,,"Vente","Logement","30240","30",,0
"3CL","3CL-DPE, version 1.3","2013-04-08",177,"D",9,"B",2001,70.66,47.9278248,1.8941395,"Vente","Logement","31200","31","Rue Paul Verlaine (Chemin piéton) Orléans",0.8
"TROIS_CL_DPE","VERSION_2012","2013-04-19",208.37,"D",10.65,"B",1985,100,43.6417119,0.5950781,"Vente","Maison Individuelle","32001","32","Résidence Les Terrasses (Zone résidentielle) Auch",0.9
"3CL","3CL-DPE, version 1.3","2013-04-12",139,"C",32,"D",1948,123.76,43.4432433,4.9408493,"Vente","Maison Individuelle","33610","33","Stade de l'Allée des Pins Fos-sur-Mer",0.76
"3CL - DPE","V2012","2013-04-15",315.86,"E",15.33,"C",1988,102,48.6071297,2.4838694,"Vente","Maison Individuelle","34198","34","Parking de la place Jean Moulin Corbeil-Essonnes",0.81
"Méthode 3CL","3CL-DPE, version 1.3","2013-04-16",150,"C",6,"B",2008,55,47.6557482,1.4880333,"Vente","Logement","35190","35","Arrêt de Bus Rue Nationale Saint-Dyé-sur-Loire",0.78
"Méthode 3CL","3CL-DPE, version 1.3","2013-04-30",241,"E",12,"C",1978,105.6,,,"Vente","Maison Individuelle","36110","36",,0
"Méthode 3CL","3CL-DPE, version 1.3","2013-04-22",329,"E",98,"G",1948,82,47.028278,0.494604,"Vente","Maison Individuelle","37140","37","Les Poiriers 37120 Luzé",0.37
"Méthode 3CL","3CL-DPE, version 1.3","2013-04-22",183,"D",41,"E",1948,130,48.6680174,1.7662552,"Vente","Maison Individuelle","38200","38","Chemin du Vieux Château Gazeran",0.8
"3CL - DPE","V2012","2013-05-06",380.64,"F",23.73,"D",1980,120,47.084372,5.473147,"Vente","Maison Individuelle","39198","39","29 Rue Prince de Condé 39100 Dole",0.85
"Méthode 3CL","3CL-DPE, version 1.3","2013-04-18",131,"C",30,"D",1984,78.4,,,"Vente","Maison Individuelle","40400","40",,0
"TROIS_CL_DPE","VERSION_2012","2013-04-18",105.48,"C",4.52,"A",2011,166,47.385485,1.959567,"Location","Maison Individuelle","41084","41","Chemin Vert 41300 La Ferté-Imbault",0.64
"Méthode 3CL","3CL-DPE, version 1.3","2013-04-27",149,"C",26,"D",2006,89.5,45.806436,4.152829,"Vente","Maison Individuelle","42155","42","Lotissement les Sapins 42510 Nervieux",0.39
"Méthode 3CL","3CL-DPE, version 1.3","2013-04-17",143,"C",33,"D",1948,86,45.383188,3.269456,"Vente","Logement","43120","43","22 Avenue de la Gare 43410 Lempdes-sur-Allagnon",0.46
"Méthode 3CL","3CL-DPE, version 1.3","2013-04-17",120,"C",5,"A",2006,100,,,"Vente","Maison Individuelle","44250","44",,0
"Méthode 3CL","3CL-DPE, version 1.3","2013-04-18",211,"D",34,"D",1978,138,,,"Vente","Maison Individuelle","45190","45",,0
"3CL - DPE","V2012","2013-05-07",292.39,"E",3.88,"A",1978,173.2,44.5594994,0.9509118,"Vente","Maison Individuelle","46061","46","(Pont) Cuzorn",0.89
"Méthode Facture",,"2013-05-07",0,"N",0,"N",1947,84.77,46.5224647,5.150254,"Vente","Maison Individuelle","47800","47","Les Bois Charbonniers (Forêt) Romenay",0.9
"Méthode Facture",,"2013-05-18",0,"N",0,"N",1947,95,45.681703,5.9155607,"Vente","Maison Individuelle","48700","48","Belvédère du Bois Vidal (Point de vue) Aix-les-Bains",0.72
"Méthode Facture",,"2013-04-22",159,"D",37,"E",1947,198,48.2217711,7.6478467,"Vente","Maison Individuelle","49400","49","Rue du Canal d'Alsace (Pont) Schœnau",0.72
"Méthode Facture",,"2013-04-16",352,"F",93,"G",1947,217,48.7405394,1.6620623,"Vente","Maison Individuelle","50700","50","Rue de la Poterie (Pont) Condé-sur-Vesgre",0.74
"TROIS_CL_DPE","VERSION_2012","2013-05-03",311.1,"E",14.88,"C",2007,90,48.852943,3.599342,"Vente","Maison Individuelle","51050","51","1 Rue de Boutavent 51210 Bergères-sous-Montmirail",0.39
"Méthode 3CL","3CL-DPE, version 1.3","2013-05-07",118,"C",32,"D",2006,121.34,48.383693,4.994809,"Location","Maison Individuelle","52110","52","28 Rue des 2 Ecoles 52110 Charmes-la-Grande",0.47
"3CL - DPE","V2012","2013-04-22",484.41,"G",28.81,"D",1974,68.06,48.316681,-0.788982,"Vente","Maison Individuelle","53064","53","La Petite Gibaudiere 53100 Châtillon-sur-Colmont",0.31
"Méthode 3CL","3CL-DPE, version 1.3","2013-04-23",560,"G",35,"D",1948,99.5,48.87686,5.847097,"Vente","Logement","54200","54","9 Rue de Mort-mare 54470 Flirey",0.31
"Méthode 3CL","3CL-DPE, version 1.3","2013-04-30",626,"G",146,"G",1948,117.48,,,"Vente","Maison Individuelle","55100","55",,0
"Méthode 3CL","3CL-DPE, version 1.3","2013-04-16",189,"D",8,"B",2001,65,,,"Location","Maison Individuelle","56610","56",,0
"TROIS_CL_DPE","VERSION_2012","2013-04-23",291.34,"E",87.4,"G",1976,242,49.3590165,6.1695315,"Vente","Maison Individuelle","57016","57","Radio Taxi Thionville Rue du Luxembourg Thionville",0.77
"3CL - DPE","V2012","2013-05-03",148.17,"C",34.67,"D",2006,94.45,46.749931,3.484046,"Location","Maison Individuelle","58087","58","14 Route de Decize 58300 Cossaye",0.94
"Méthode Facture",,"2013-04-12",0,"N",0,"N",1947,18.6,50.446493,3.5930659,"Location","Logement","59163","59","Rue du Quesnoy (Pont) Condé-sur-l'Escaut",0.74
